[{
  "name": "Afghanistan",
  "capital": "Kabul",
  "region": "Asia",
  "population": 38928341,
  "area": 652230,
  "languages": [
    "Pashto",
    "Dari"
  ],
  "borders": [
    "Iran",
    "Pakistan",
    "Tajikistan",
    "Turkmenistan",
    "Uzbekistan"
  ],
  "cities": [
    {
      "city": "Kabul",
      "latitude": 34.5553,
      "longitude": 69.2075
    },
    {
      "city": "Kandahar",
      "latitude": 31.6130,
      "longitude": 65.7100
    },
    {
      "city": "Herat",
      "latitude": 34.3494,
      "longitude": 62.1950
    },
    {
      "city": "Mazar-i-Sharif",
      "latitude": 36.7100,
      "longitude": 67.1100
    },
    {
      "city": "Jalalabad",
      "latitude": 34.4387,
      "longitude": 70.4527
    },
    {
      "city": "Baghlan",
      "latitude": 36.0897,
      "longitude": 68.7075
    },
    {
      "city": "Ghazni",
      "latitude": 33.5522,
      "longitude": 68.4200
    },
    {
      "city": "Balkh",
      "latitude": 36.7519,
      "longitude": 66.9000
    },
    {
      "city": "Puli Alam",
      "latitude": 33.9894,
      "longitude": 69.1144
    },
    {
      "city": "Logar",
      "latitude": 33.9781,
      "longitude": 69.1711
    },
    {
      "city": "Qalat",
      "latitude": 32.0272,
      "longitude": 66.8750
    },
    {
      "city": "Taloqan",
      "latitude": 36.7322,
      "longitude": 69.5372
    },
    {
      "city": "Kunduz",
      "latitude": 36.7275,
      "longitude": 68.8628
    },
    {
      "city": "Nangarhar",
      "latitude": 34.4500,
      "longitude": 70.4975
    },
    {
      "city": "Chaghcharan",
      "latitude": 34.4717,
      "longitude": 64.7011
    },
    {
      "city": "Farah",
      "latitude": 32.9800,
      "longitude": 62.0786
    },
    {
      "city": "Zaranj",
      "latitude": 30.9600,
      "longitude": 61.8611
    },
    {
      "city": "Sheberghan",
      "latitude": 36.6547,
      "longitude": 64.8931
    },
    {
      "city": "Khost",
      "latitude": 33.3342,
      "longitude": 69.9250
    },
    {
      "city": "Paktia",
      "latitude": 33.5903,
      "longitude": 69.4144
    },
    {
      "city": "Sar-e Pol",
      "latitude": 36.2167,
      "longitude": 65.9600
    },
    {
      "city": "Bamyan",
      "latitude": 34.8011,
      "longitude": 67.8433
    },
    {
      "city": "Badakhshan",
      "latitude": 36.7078,
      "longitude": 71.4594
    },
    {
      "city": "Takhar",
      "latitude": 36.7036,
      "longitude": 69.5406
    },
    {
      "city": "Nimroz",
      "latitude": 31.0614,
      "longitude": 61.8767
    },
    {
      "city": "Helmand",
      "latitude": 32.0500,
      "longitude": 64.2000
    },
    {
      "city": "Urozgan",
      "latitude": 32.4925,
      "longitude": 65.4847
    },
    {
      "city": "Wardak",
      "latitude": 33.7744,
      "longitude": 68.0564
    },
    {
      "city": "Ghor",
      "latitude": 33.5144,
      "longitude": 64.2322
    },
    {
      "city": "Kunar",
      "latitude": 34.8189,
      "longitude": 71.2786
    },
    {
      "city": "Panjsher",
      "latitude": 35.2119,
      "longitude": 69.1011
    },
    {
      "city": "Badghis",
      "latitude": 35.1333,
      "longitude": 62.2261
    },
    {
      "city": "Panjshir",
      "latitude": 35.2119,
      "longitude": 69.1011
    },
    {
      "city": "Faryab",
      "latitude": 36.0767,
      "longitude": 64.9900
    },
    {
      "city": "Dai Kundi",
      "latitude": 33.9700,
      "longitude": 66.3600
    },
    {
      "city": "Zabul",
      "latitude": 32.2586,
      "longitude": 66.9000
    },
    {
      "city": "Laghman",
      "latitude": 34.4500,
      "longitude": 70.4672
    }
  ],
  "tourism": 5200,
  "currency": "Afghan afghani",
  "gdp": 19.81,
  "flag": "AFG",
  "timezone": "Asia/Kabul",
  "callingCode": "+93",
  "monuments": [
    {
      "name": "Bamiyan Buddhas",
      "city": "Bamyan",
      "coordinates": {
        "latitude": 34.8167,
        "longitude": 67.8210
      }
    },
    {
      "name": "Minaret of Jam",
      "city": "Ghor",
      "coordinates": {
        "latitude": 34.3967,
        "longitude": 64.5158
      }
    },
    {
      "name": "Kabul Museum",
      "city": "Kabul",
      "coordinates": {
        "latitude": 34.5190,
        "longitude": 69.1760
      }
    },
    {
      "name": "Blue Mosque",
      "city": "Mazar-i-Sharif",
      "coordinates": {
        "latitude": 36.7069,
        "longitude": 67.1122
      }
    },
    {
      "name": "Herat Citadel",
      "city": "Herat",
      "coordinates": {
        "latitude": 34.3419,
        "longitude": 62.2031
      }
    },
    {
      "name": "Shah-e Doh Shamshira Mosque",
      "city": "Kabul",
      "coordinates": {
        "latitude": 34.5158,
        "longitude": 69.1803
      }
    },
    {
      "name": "Darul Aman Palace",
      "city": "Kabul",
      "coordinates": {
        "latitude": 34.4731,
        "longitude": 69.1194
      }
    },
    {
      "name": "Qala-i-Jangi Fortress",
      "city": "Mazar-i-Sharif",
      "coordinates": {
        "latitude": 36.7000,
        "longitude": 67.1167
      }
    },
    {
      "name": "Tomb of Ahmad Shah Durrani",
      "city": "Kandahar",
      "coordinates": {
        "latitude": 31.6200,
        "longitude": 65.7150
      }
    },
    {
      "name": "Ghazni Minarets",
      "city": "Ghazni",
      "coordinates": {
        "latitude": 33.5500,
        "longitude": 68.4167
      }
    },
    {
      "name": "Balkh Ancient City",
      "city": "Balkh",
      "coordinates": {
        "latitude": 36.7581,
        "longitude": 66.8989
      }
    },
    {
      "name": "Jalalabad Gardens",
      "city": "Jalalabad",
      "coordinates": {
        "latitude": 34.4300,
        "longitude": 70.4500
      }
    },
    {
      "name": "Kunduz Bazaar",
      "city": "Kunduz",
      "coordinates": {
        "latitude": 36.7289,
        "longitude": 68.8570
      }
    },
    {
      "name": "Sheberghan Archaeological Sites",
      "city": "Sheberghan",
      "coordinates": {
        "latitude": 36.6547,
        "longitude": 64.8931
      }
    },
    {
      "name": "Takhar Fortress",
      "city": "Takhar",
      "coordinates": {
        "latitude": 36.7036,
        "longitude": 69.5406
      }
    },
    {
      "name": "Sar-e Pol Ancient Ruins",
      "city": "Sar-e Pol",
      "coordinates": {
        "latitude": 36.2167,
        "longitude": 65.9600
      }
    },
    {
      "name": "Badakhshan Fort",
      "city": "Badakhshan",
      "coordinates": {
        "latitude": 36.7078,
        "longitude": 71.4594
      }
    },
    {
      "name": "Helmand River Dam",
      "city": "Helmand",
      "coordinates": {
        "latitude": 32.0500,
        "longitude": 64.2000
      }
    },
    {
      "name": "Panjshir Valley Monument",
      "city": "Panjshir",
      "coordinates": {
        "latitude": 35.2119,
        "longitude": 69.1011
      }
    },
    {
      "name": "Zabul Fortress",
      "city": "Zabul",
      "coordinates": {
        "latitude": 32.2586,
        "longitude": 66.9000
      }
    }
  ],
  "images": [
    "/images/Afganistan/Afghanistan.jpg",
    "/images/Afganistan/Bamidan_Buyas_Afghanistan.jpg",
    "/images/Afganistan/Kabul_Museum_Afghanistan.jpg",
    "/images/Afganistan/Minaret_Of_Jam_Afganistan.jpg"
  ],
  "safetyStatus": "red",
  "dangerExplanation": "Ongoing conflict, presence of terrorist groups, and civil unrest make Afghanistan highly dangerous for residents and travelers."
},
  {
    "name": "Albania",
    "capital": "Tirana",
    "region": "Europe",
    "population": 2877797,
    "area": 28748,
    "languages": [
      "Albanian"
    ],
    "borders": [
      "Montenegro",
      "Kosovo",
      "North Macedonia",
      "Greece"
    ],
    "cities": [
      { "city": "Tirana", "latitude": 41.3275, "longitude": 19.8189 },
      { "city": "Durrës", "latitude": 41.3231, "longitude": 19.4484 },
      { "city": "Vlorë", "latitude": 40.4667, "longitude": 19.5128 },
      { "city": "Shkodër", "latitude": 42.0686, "longitude": 19.5119 },
      { "city": "Fier", "latitude": 40.7167, "longitude": 19.5667 },
      { "city": "Elbasan", "latitude": 41.1139, "longitude": 20.0706 },
      { "city": "Korçë", "latitude": 40.6167, "longitude": 20.7667 },
      { "city": "Berat", "latitude": 40.7028, "longitude": 19.9556 },
      { "city": "Lushnjë", "latitude": 40.9275, "longitude": 19.6872 },
      { "city": "Përmet", "latitude": 40.2333, "longitude": 20.3500 },
      { "city": "Pogradec", "latitude": 40.9000, "longitude": 20.6667 },
      { "city": "Sarandë", "latitude": 39.8747, "longitude": 20.0047 },
      { "city": "Gjirokastër", "latitude": 40.0733, "longitude": 20.1417 },
      { "city": "Kavajë", "latitude": 41.4333, "longitude": 19.9500 },
      { "city": "Vau i Dejës", "latitude": 42.0306, "longitude": 19.5444 },
      { "city": "Kamëz", "latitude": 41.4175, "longitude": 19.8014 },
      { "city": "Fushë-Krujë", "latitude": 41.4933, "longitude": 19.8833 },
      { "city": "Mat", "latitude": 41.5167, "longitude": 20.0167 },
      { "city": "Rrëshen", "latitude": 41.7833, "longitude": 19.7833 },
      { "city": "Kukës", "latitude": 42.0667, "longitude": 20.4167 },
      { "city": "Shijak", "latitude": 41.3667, "longitude": 19.5167 },
      { "city": "Patos", "latitude": 40.6686, "longitude": 19.5992 },
      { "city": "Cakran", "latitude": 40.6000, "longitude": 19.7000 },
      { "city": "Bajkaj", "latitude": 40.5511, "longitude": 19.4364 },
      { "city": "Vlorë", "latitude": 40.4667, "longitude": 19.5128 },
      { "city": "Bajkaj", "latitude": 40.5511, "longitude": 19.4364 }
    ],
    "monuments": [
      {
        "name": "Skanderbeg Square",
        "city": "Tirana",
        "coordinates": {
          "latitude": 41.3275,
          "longitude": 19.8187
        }
      },
      {
        "name": "Et'hem Bey Mosque",
        "city": "Tirana",
        "coordinates": {
          "latitude": 41.3278,
          "longitude": 19.8189
        }
      },
      {
        "name": "Rozafa Castle",
        "city": "Shkodër",
        "coordinates": {
          "latitude": 42.0464,
          "longitude": 19.4936
        }
      },
      {
        "name": "Berat Castle",
        "city": "Berat",
        "coordinates": {
          "latitude": 40.7075,
          "longitude": 19.9492
        }
      },
      {
        "name": "Gjirokastër Castle",
        "city": "Gjirokastër",
        "coordinates": {
          "latitude": 40.0750,
          "longitude": 20.1389
        }
      },
      {
        "name": "Apollonia Archaeological Park",
        "city": "Fier",
        "coordinates": {
          "latitude": 40.7194,
          "longitude": 19.4711
        }
      },
      {
        "name": "Krujë Castle",
        "city": "Krujë",
        "coordinates": {
          "latitude": 41.5069,
          "longitude": 19.7931
        }
      },
      {
        "name": "Butrint National Park",
        "city": "Sarandë",
        "coordinates": {
          "latitude": 39.7464,
          "longitude": 20.0233
        }
      },
      {
        "name": "National Art Gallery",
        "city": "Tirana",
        "coordinates": {
          "latitude": 41.3289,
          "longitude": 19.8178
        }
      },
      {
        "name": "Bunk'Art 2",
        "city": "Tirana",
        "coordinates": {
          "latitude": 41.3272,
          "longitude": 19.8190
        }
      },
      {
        "name": "The Clock Tower of Tirana",
        "city": "Tirana",
        "coordinates": {
          "latitude": 41.3276,
          "longitude": 19.8186
        }
      },
      {
        "name": "The Pyramid of Tirana",
        "city": "Tirana",
        "coordinates": {
          "latitude": 41.3256,
          "longitude": 19.8203
        }
      },
      {
        "name": "Lead Mosque",
        "city": "Shkodër",
        "coordinates": {
          "latitude": 42.0678,
          "longitude": 19.5136
        }
      },
      {
        "name": "Mes Bridge",
        "city": "Shkodër",
        "coordinates": {
          "latitude": 42.0667,
          "longitude": 19.5167
        }
      },
      {
        "name": "Onufri Museum",
        "city": "Berat",
        "coordinates": {
          "latitude": 40.7064,
          "longitude": 19.9497
        }
      },
      {
        "name": "Mangalem Quarter",
        "city": "Berat",
        "coordinates": {
          "latitude": 40.7058,
          "longitude": 19.9511
        }
      },
      {
        "name": "Gjirokastër Bazaar",
        "city": "Gjirokastër",
        "coordinates": {
          "latitude": 40.0758,
          "longitude": 20.1383
        }
      },
      {
        "name": "Zekate House",
        "city": "Gjirokastër",
        "coordinates": {
          "latitude": 40.0744,
          "longitude": 20.1392
        }
      },
      {
        "name": "Porta Romana",
        "city": "Fier",
        "coordinates": {
          "latitude": 40.7200,
          "longitude": 19.4700
        }
      },
      {
        "name": "Ethnographic Museum",
        "city": "Krujë",
        "coordinates": {
          "latitude": 41.5078,
          "longitude": 19.7928
        }
      }
    ],
    "currency": "Albanian lek",
    "gdp": 15.29,
    "flag": "ALB",
    "timezone": "Europe/Tirana",
    "callingCode": "+355",
    "images": [
      "/images/Albania/Albania.jpg",
      "/images/Albania/Albania_Butrint.jpg",
      "/images/Albania/Albania_Ethem_Bey_Mosque.jpg",
      "/images/Albania/Albania_Rozafa_Castle.jpg"
    ],
    "safetyStatus": "green",
    "dangerExplanation": "Low crime rate, but travelers should be cautious in rural areas due to less infrastructure."
  },
  {
    "name": "Algeria",
    "capital": "Algiers",
    "region": "Africa",
    "population": 43851044,
    "area": 2381741,
    "languages": [
      "Arabic",
      "Berber"
    ],
    "borders": [
      "Tunisia",
      "Libya",
      "Niger",
      "Mali",
      "Mauritania",
      "Western Sahara",
      "Morocco"
    ],
    "cities": [
      { "city": "Algiers", "latitude": 36.737232, "longitude": 3.086472 },
      { "city": "Oran", "latitude": 35.6986, "longitude": -0.6307 },
      { "city": "Constantine", "latitude": 36.3654, "longitude": 6.6146 },
      { "city": "Annaba", "latitude": 36.8632, "longitude": 7.7594 },
      { "city": "Blida", "latitude": 36.4793, "longitude": 2.8606 },
      { "city": "Batna", "latitude": 35.5557, "longitude": 6.1787 },
      { "city": "Setif", "latitude": 36.1919, "longitude": 5.4161 },
      { "city": "Tizi Ouzou", "latitude": 36.7161, "longitude": 4.0471 },
      { "city": "Biskra", "latitude": 34.8487, "longitude": 5.7268 },
      { "city": "Skikda", "latitude": 36.8663, "longitude": 6.9062 },
      { "city": "Ghardaia", "latitude": 32.4907, "longitude": 3.6735 },
      { "city": "Bejaia", "latitude": 36.7509, "longitude": 5.0567 },
      { "city": "Tlemcen", "latitude": 34.8783, "longitude": -1.315 },
      { "city": "Mostaganem", "latitude": 35.9312, "longitude": 0.0892 },
      { "city": "Bouira", "latitude": 36.3749, "longitude": 3.902 },
      { "city": "Tiaret", "latitude": 35.371, "longitude": 1.316 },
      { "city": "Jijel", "latitude": 36.821, "longitude": 5.766 },
      { "city": "Guelma", "latitude": 36.462, "longitude": 7.426 },
      { "city": "Medea", "latitude": 36.264, "longitude": 2.753 },
      { "city": "Ain Temouchent", "latitude": 35.297, "longitude": -1.140 },
      { "city": "Relizane", "latitude": 35.737, "longitude": 0.555 },
      { "city": "El Oued", "latitude": 33.368, "longitude": 6.867 },
      { "city": "Tindouf", "latitude": 27.671, "longitude": -8.147 },
      { "city": "Illizi", "latitude": 26.507, "longitude": 8.473 },
      { "city": "Tamanrasset", "latitude": 22.785, "longitude": 5.522 },
      { "city": "Adrar", "latitude": 27.874, "longitude": -0.293 },
      { "city": "Laghouat", "latitude": 33.807, "longitude": 2.865 },
      { "city": "Ouargla", "latitude": 31.949, "longitude": 5.325 },
      { "city": "El Bayadh", "latitude": 33.683, "longitude": 1.019 },
      { "city": "Naama", "latitude": 33.266, "longitude": -0.312 },
      { "city": "Tissemsilt", "latitude": 35.607, "longitude": 1.810 },
      { "city": "Khenchela", "latitude": 35.435, "longitude": 7.143 },
      { "city": "Souk Ahras", "latitude": 36.286, "longitude": 7.951 },
      { "city": "Tipaza", "latitude": 36.589, "longitude": 2.448 },
      { "city": "Ain Defla", "latitude": 36.264, "longitude": 1.967 },
      { "city": "Saida", "latitude": 34.830, "longitude": 0.151 },
      { "city": "Mascara", "latitude": 35.396, "longitude": 0.140 },
      { "city": "El Tarf", "latitude": 36.767, "longitude": 8.313 },
      { "city": "Tebessa", "latitude": 35.404, "longitude": 8.124 },
      { "city": "Mila", "latitude": 36.450, "longitude": 6.264 },
      { "city": "Ain Beida", "latitude": 35.796, "longitude": 7.392 },
      { "city": "Bordj Bou Arreridj", "latitude": 36.073, "longitude": 4.761 },
      { "city": "Boumerdes", "latitude": 36.759, "longitude": 3.477 },
      { "city": "El Oued", "latitude": 33.368, "longitude": 6.867 },
      { "city": "Tamanrasset", "latitude": 22.785, "longitude": 5.522 },
      { "city": "Adrar", "latitude": 27.874, "longitude": -0.293 },
      { "city": "Laghouat", "latitude": 33.807, "longitude": 2.865 },
      { "city": "Ouargla", "latitude": 31.949, "longitude": 5.325 }
    ],
    "monuments": [
      {
        "name": "Casbah of Algiers",
        "city": "Algiers",
        "coordinates": {
          "latitude": 36.7833,
          "longitude": 3.0600
        }
      },
      {
        "name": "Timgad",
        "city": "Batna",
        "coordinates": {
          "latitude": 35.4833,
          "longitude": 6.4667
        }
      },
      {
        "name": "Djémila",
        "city": "Sétif",
        "coordinates": {
          "latitude": 36.3167,
          "longitude": 5.7333
        }
      },
      {
        "name": "M'zab Valley",
        "city": "Ghardaïa",
        "coordinates": {
          "latitude": 32.4833,
          "longitude": 3.6833
        }
      },
      {
        "name": "Tassili n'Ajjer",
        "city": "Djanet",
        "coordinates": {
          "latitude": 25.5000,
          "longitude": 9.0000
        }
      },
      {
        "name": "Tipasa",
        "city": "Tipasa",
        "coordinates": {
          "latitude": 36.5833,
          "longitude": 2.4500
        }
      },
      {
        "name": "Ketchaoua Mosque",
        "city": "Algiers",
        "coordinates": {
          "latitude": 36.7867,
          "longitude": 3.0606
        }
      },
      {
        "name": "Great Mosque of Tlemcen",
        "city": "Tlemcen",
        "coordinates": {
          "latitude": 34.8833,
          "longitude": -1.3167
        }
      },
      {
        "name": "El Djemila",
        "city": "Sétif",
        "coordinates": {
          "latitude": 36.3167,
          "longitude": 5.7333
        }
      },
      {
        "name": "Hammam Meskoutine",
        "city": "Guelma",
        "coordinates": {
          "latitude": 36.4667,
          "longitude": 7.4333
        }
      },
      {
        "name": "Beni Hammad Fort",
        "city": "M'Sila",
        "coordinates": {
          "latitude": 35.8167,
          "longitude": 4.7833
        }
      },
      {
        "name": "Notre Dame d'Afrique",
        "city": "Algiers",
        "coordinates": {
          "latitude": 36.8028,
          "longitude": 3.0428
        }
      },
      {
        "name": "Tassili n'Ajjer National Park",
        "city": "Djanet",
        "coordinates": {
          "latitude": 25.5000,
          "longitude": 9.0000
        }
      },
      {
        "name": "El Kala National Park",
        "city": "El Kala",
        "coordinates": {
          "latitude": 36.8833,
          "longitude": 8.4333
        }
      },
      {
        "name": "Ahaggar National Park",
        "city": "Tamanrasset",
        "coordinates": {
          "latitude": 23.3000,
          "longitude": 5.5333
        }
      },
      {
        "name": "Bardo National Museum",
        "city": "Algiers",
        "coordinates": {
          "latitude": 36.7500,
          "longitude": 3.0500
        }
      },
      {
        "name": "Great Mosque of Algiers",
        "city": "Algiers",
        "coordinates": {
          "latitude": 36.7833,
          "longitude": 3.0600
        }
      },
      {
        "name": "Sidi M'Cid Bridge",
        "city": "Constantine",
        "coordinates": {
          "latitude": 36.3667,
          "longitude": 6.6167
        }
      },
      {
        "name": "Palais des Raïs",
        "city": "Algiers",
        "coordinates": {
          "latitude": 36.7833,
          "longitude": 3.0600
        }
      },
      {
        "name": "Tassili n'Ajjer Rock Art",
        "city": "Djanet",
        "coordinates": {
          "latitude": 25.5000,
          "longitude": 9.0000
        }
      }
    ],
    "currency": "Algerian dinar",
    "gdp": 170.4,
    "flag": "DZA",
    "timezone": "Africa/Algiers",
    "callingCode": "+213",

    "images": [
      "images/Algeria/Algeria.jpg",
      "images/Algeria/Algeria_Beni_Hammad.jpg",
      "images/Algeria/Algeria_MzabValley.jpg",
      "images/Algeria/Algeria_Timbad.jpg"

    ],
    "safetyStatus": "yellow",
    "dangerExplanation": "Certain regions have terrorist activity and regional instability, especially near the southern border."
  },
  {
    "name": "Angola",
    "capital": "Luanda",
    "region": "Africa",
    "population": 32866272,
    "area": 1246700,
    "languages": [
      "Portuguese"
    ],
    "borders": [
      "Democratic Republic of the Congo",
      "Republic of the Congo",
      "Zambia",
      "Namibia"
    ],
    "cities": [
      { "city": "Luanda", "latitude": -8.8390, "longitude": 13.2894 },
      { "city": "N'dalatando", "latitude": -7.4433, "longitude": 14.1956 },
      { "city": "Lubango", "latitude": -14.9186, "longitude": 13.4996 },
      { "city": "Benguela", "latitude": -12.5763, "longitude": 13.4055 },
      { "city": "Huambo", "latitude": -12.7761, "longitude": 15.7392 },
      { "city": "Lobito", "latitude": -12.3644, "longitude": 13.5360 },
      { "city": "Kuito", "latitude": -12.3833, "longitude": 16.9333 },
      { "city": "Malanje", "latitude": -9.5402, "longitude": 16.3410 },
      { "city": "Namibe", "latitude": -15.1961, "longitude": 12.1522 },
      { "city": "Soyo", "latitude": -6.1349, "longitude": 12.3689 },
      { "city": "Cabinda", "latitude": -5.5500, "longitude": 12.2000 },
      { "city": "Uíge", "latitude": -7.6087, "longitude": 15.0613 },
      { "city": "Saurimo", "latitude": -9.6608, "longitude": 20.3915 },
      { "city": "Sumbe", "latitude": -11.2061, "longitude": 13.8437 },
      { "city": "Caxito", "latitude": -8.5785, "longitude": 13.6643 },
      { "city": "Ondjiva", "latitude": -17.0667, "longitude": 15.7333 },
      { "city": "Menongue", "latitude": -14.6585, "longitude": 17.6910 },
      { "city": "Cuito Cuanavale", "latitude": -15.1667, "longitude": 19.1667 },
      { "city": "Luena", "latitude": -11.7833, "longitude": 19.9167 },
      { "city": "Mbanza Congo", "latitude": -6.2670, "longitude": 14.2400 },
      { "city": "Catumbela", "latitude": -12.4300, "longitude": 13.5460 },
      { "city": "Camacupa", "latitude": -12.0167, "longitude": 17.4833 },
      { "city": "Chibia", "latitude": -15.2000, "longitude": 13.7000 },
      { "city": "Caconda", "latitude": -13.7333, "longitude": 15.0667 },
      { "city": "Cazenga", "latitude": -8.8333, "longitude": 13.2333 },
      { "city": "Lucapa", "latitude": -8.4167, "longitude": 20.7500 },
      { "city": "Nzeto", "latitude": -7.2333, "longitude": 12.8667 },
      { "city": "Quibala", "latitude": -10.7333, "longitude": 14.9833 },
      { "city": "Caluquembe", "latitude": -13.7833, "longitude": 14.6833 },
      { "city": "Cuito", "latitude": -12.3833, "longitude": 16.9333 },
      { "city": "Chitato", "latitude": -7.3500, "longitude": 20.8333 },
      { "city": "Dundo", "latitude": -7.3800, "longitude": 20.8400 },
      { "city": "Lumeje", "latitude": -11.5500, "longitude": 20.7833 },
      { "city": "Mavinga", "latitude": -15.7833, "longitude": 20.3667 },
      { "city": "N'zeto", "latitude": -7.2333, "longitude": 12.8667 },
      { "city": "Quibaxe", "latitude": -9.2833, "longitude": 14.9833 },
      { "city": "Quilengues", "latitude": -14.0667, "longitude": 13.7833 },
      { "city": "Quipungo", "latitude": -14.8167, "longitude": 13.4833 },
      { "city": "Songo", "latitude": -7.3500, "longitude": 14.8500 },
      { "city": "Tombua", "latitude": -15.8000, "longitude": 11.8500 },
      { "city": "Uacu Cungo", "latitude": -11.3500, "longitude": 15.1167 },
      { "city": "Waku Kungo", "latitude": -11.3500, "longitude": 15.1167 },
      { "city": "Xangongo", "latitude": -16.7500, "longitude": 14.9667 },
      { "city": "Zaire", "latitude": -6.1333, "longitude": 12.3667 },
      { "city": "Zango", "latitude": -8.8333, "longitude": 13.2333 },
      { "city": "Zenza do Itombe", "latitude": -9.3500, "longitude": 14.7500 },
      { "city": "Zombo", "latitude": -6.8333, "longitude": 14.8333 }
    ],
    "monuments": [
      {
        "name": "Fortaleza de São Miguel",
        "city": "Luanda",
        "coordinates": {
          "latitude": -8.8115,
          "longitude": 13.2319
        }
      },
      {
        "name": "National Museum of Anthropology",
        "city": "Luanda",
        "coordinates": {
          "latitude": -8.8142,
          "longitude": 13.2317
        }
      },
      {
        "name": "Igreja da Nossa Senhora da Nazaré",
        "city": "Luanda",
        "coordinates": {
          "latitude": -8.8111,
          "longitude": 13.2333
        }
      },
      {
        "name": "Miradouro da Lua",
        "city": "Luanda",
        "coordinates": {
          "latitude": -9.0833,
          "longitude": 13.2500
        }
      },
      {
        "name": "Kalandula Falls",
        "city": "Malanje",
        "coordinates": {
          "latitude": -9.0750,
          "longitude": 16.0033
        }
      },
      {
        "name": "Tundavala Gap",
        "city": "Lubango",
        "coordinates": {
          "latitude": -14.8167,
          "longitude": 13.5000
        }
      },
      {
        "name": "Serra da Leba",
        "city": "Lubango",
        "coordinates": {
          "latitude": -14.9167,
          "longitude": 13.4167
        }
      },
      {
        "name": "Cangandala National Park",
        "city": "Malanje",
        "coordinates": {
          "latitude": -9.7500,
          "longitude": 16.5000
        }
      },
      {
        "name": "Kissama National Park",
        "city": "Luanda",
        "coordinates": {
          "latitude": -9.3333,
          "longitude": 13.1667
        }
      },
      {
        "name": "Mussulo Island",
        "city": "Luanda",
        "coordinates": {
          "latitude": -8.9500,
          "longitude": 13.1000
        }
      },
      {
        "name": "Cathedral of the Holy Saviour",
        "city": "Luanda",
        "coordinates": {
          "latitude": -8.8111,
          "longitude": 13.2333
        }
      },
      {
        "name": "Palácio de Ferro",
        "city": "Luanda",
        "coordinates": {
          "latitude": -8.8111,
          "longitude": 13.2333
        }
      },
      {
        "name": "Mausoleum of Agostinho Neto",
        "city": "Luanda",
        "coordinates": {
          "latitude": -8.8111,
          "longitude": 13.2333
        }
      },
      {
        "name": "Igreja da Nossa Senhora do Carmo",
        "city": "Luanda",
        "coordinates": {
          "latitude": -8.8111,
          "longitude": 13.2333
        }
      },
      {
        "name": "Igreja da Nossa Senhora da Conceição",
        "city": "Luanda",
        "coordinates": {
          "latitude": -8.8111,
          "longitude": 13.2333
        }
      },
      {
        "name": "Igreja da Nossa Senhora do Rosário",
        "city": "Luanda",
        "coordinates": {
          "latitude": -8.8111,
          "longitude": 13.2333
        }
      },
      {
        "name": "Igreja da Nossa Senhora da Muxima",
        "city": "Luanda",
        "coordinates": {
          "latitude": -8.8111,
          "longitude": 13.2333
        }
      },
      {
        "name": "Igreja da Nossa Senhora da Vitória",
        "city": "Luanda",
        "coordinates": {
          "latitude": -8.8111,
          "longitude": 13.2333
        }
      },
      {
        "name": "Igreja da Nossa Senhora da Assunção",
        "city": "Luanda",
        "coordinates": {
          "latitude": -8.8111,
          "longitude": 13.2333
        }
      },
      {
        "name": "Igreja da Nossa Senhora da Graça",
        "city": "Luanda",
        "coordinates": {
          "latitude": -8.8111,
          "longitude": 13.2333
        }
      }
    ],
    "currency": "Kwanza",
    "gdp": 66.49,
    "flag": "AGO",
    "timezone": "Africa/Luanda",
    "callingCode": "+244",
    "images": [
      "images/Angola/Angola.jpg",
      "images/Angola/Angola_fortaleza_de_sao_miguel.jpg",
      "images/Angola/Angola_Kissama_national_park.jpg",
      "images/Angola/Angola_tundavala_gap.jpg"
    ],
    "safetyStatus": "yellow",
    "dangerExplanation": "Crime in urban areas is an issue, particularly in Luanda."
  },
  {
    "name": "Argentina",
    "capital": "Buenos Aires",
    "region": "South America",
    "population": 45195774,
    "area": 2780400,
    "languages": [
      "Spanish"
    ],
    "borders": [
      "Chile",
      "Brazil",
      "Paraguay",
      "Uruguay",
      "Bolivia"
    ],
    "cities": [
      { "city": "Buenos Aires", "latitude": -34.6037, "longitude": -58.3816 },
      { "city": "Córdoba", "latitude": -31.4201, "longitude": -64.1888 },
      { "city": "Rosario", "latitude": -32.9468, "longitude": -60.6393 },
      { "city": "Mendoza", "latitude": -32.8895, "longitude": -68.8458 },
      { "city": "San Miguel de Tucumán", "latitude": -26.8083, "longitude": -65.2176 },
      { "city": "La Plata", "latitude": -34.9206, "longitude": -57.9560 },
      { "city": "Mar del Plata", "latitude": -38.0037, "longitude": -57.5420 },
      { "city": "Salta", "latitude": -24.7820, "longitude": -65.4113 },
      { "city": "San Juan", "latitude": -31.5375, "longitude": -68.5368 },
      { "city": "Neuquén", "latitude": -38.9516, "longitude": -68.0590 },
      { "city": "Bariloche", "latitude": -41.1334, "longitude": -71.3100 },
      { "city": "San Fernando del Valle de Catamarca", "latitude": -28.4682, "longitude": -65.7793 },
      { "city": "Resistencia", "latitude": -27.4513, "longitude": -58.9861 },
      { "city": "Corrientes", "latitude": -27.4677, "longitude": -58.9811 },
      { "city": "Posadas", "latitude": -27.3683, "longitude": -55.8963 },
      { "city": "Santiago del Estero", "latitude": -27.7982, "longitude": -64.2617 },
      { "city": "Comodoro Rivadavia", "latitude": -45.8661, "longitude": -67.4972 },
      { "city": "Tucumán", "latitude": -26.8057, "longitude": -65.2174 },
      { "city": "San Rafael", "latitude": -34.6141, "longitude": -68.3500 },
      { "city": "San Carlos de Bariloche", "latitude": -41.1334, "longitude": -71.3100 },
      { "city": "La Rioja", "latitude": -29.4133, "longitude": -66.8500 },
      { "city": "Jujuy", "latitude": -24.1850, "longitude": -65.2998 },
      { "city": "San Nicolás de los Arroyos", "latitude": -33.3327, "longitude": -60.2110 },
      { "city": "Lanús", "latitude": -34.7211, "longitude": -58.4536 },
      { "city": "Morón", "latitude": -34.6550, "longitude": -58.6086 },
      { "city": "Quilmes", "latitude": -34.7322, "longitude": -58.2544 },
      { "city": "San Isidro", "latitude": -34.4816, "longitude": -58.5030 },
      { "city": "Almirante Brown", "latitude": -34.7894, "longitude": -58.3658 },
      { "city": "Avellaneda", "latitude": -34.6706, "longitude": -58.3294 },
      { "city": "Moreno", "latitude": -34.6171, "longitude": -58.7756 },
      { "city": "Lomas de Zamora", "latitude": -34.7306, "longitude": -58.6783 },
      { "city": "San Fernando", "latitude": -34.4820, "longitude": -58.6193 },
      { "city": "Berazategui", "latitude": -34.7986, "longitude": -58.2233 },
      { "city": "Florencio Varela", "latitude": -34.7833, "longitude": -58.2333 },
      { "city": "Ituzaingó", "latitude": -34.6700, "longitude": -58.6806 },
      { "city": "Villa María", "latitude": -32.4140, "longitude": -63.2424 },
      { "city": "Rafaela", "latitude": -31.2822, "longitude": -61.4877 },
      { "city": "Tandil", "latitude": -37.3240, "longitude": -59.1397 },
      { "city": "Mercedes", "latitude": -34.6531, "longitude": -59.5397 },
      { "city": "General Pueyrredón", "latitude": -38.0037, "longitude": -57.5420 },
      { "city": "Villa Carlos Paz", "latitude": -31.4289, "longitude": -64.4975 },
      { "city": "Cipolletti", "latitude": -38.9516, "longitude": -68.0590 },
      { "city": "Río Cuarto", "latitude": -33.1330, "longitude": -64.3502 },
      { "city": "Formosa", "latitude": -26.1844, "longitude": -58.1811 },
      { "city": "La Pampa", "latitude": -36.6167, "longitude": -64.2833 },
      { "city": "Cañuelas", "latitude": -35.0667, "longitude": -58.5667 },
      { "city": "Chivilcoy", "latitude": -35.4047, "longitude": -60.0044 },
      { "city": "Marcos Juárez", "latitude": -33.0228, "longitude": -62.0322 },
      { "city": "Las Heras", "latitude": -34.8667, "longitude": -60.5167 },
      { "city": "San Martín", "latitude": -34.5396, "longitude": -58.4554 },
      { "city": "Viedma", "latitude": -40.8130, "longitude": -62.9960 },
      { "city": "Trelew", "latitude": -43.2544, "longitude": -65.3201 }
    ],
    "monuments": [
      {
        "name": "Obelisk of Buenos Aires",
        "city": "Buenos Aires",
        "coordinates": {
          "latitude": -34.6037,
          "longitude": -58.3816
        }
      },
      {
        "name": "Iguazu Falls",
        "city": "Puerto Iguazú",
        "coordinates": {
          "latitude": -25.6953,
          "longitude": -54.4367
        }
      },
      {
        "name": "Perito Moreno Glacier",
        "city": "El Calafate",
        "coordinates": {
          "latitude": -50.4963,
          "longitude": -73.1371
        }
      },
      {
        "name": "Casa Rosada",
        "city": "Buenos Aires",
        "coordinates": {
          "latitude": -34.6083,
          "longitude": -58.3708
        }
      },
      {
        "name": "La Boca",
        "city": "Buenos Aires",
        "coordinates": {
          "latitude": -34.6345,
          "longitude": -58.3631
        }
      },
      {
        "name": "Teatro Colón",
        "city": "Buenos Aires",
        "coordinates": {
          "latitude": -34.6012,
          "longitude": -58.3835
        }
      },
      {
        "name": "Recoleta Cemetery",
        "city": "Buenos Aires",
        "coordinates": {
          "latitude": -34.5889,
          "longitude": -58.3933
        }
      },
      {
        "name": "Aconcagua",
        "city": "Mendoza",
        "coordinates": {
          "latitude": -32.6532,
          "longitude": -70.0109
        }
      },
      {
        "name": "Cerro Catedral",
        "city": "San Carlos de Bariloche",
        "coordinates": {
          "latitude": -41.1703,
          "longitude": -71.4398
        }
      },
      {
        "name": "Quebrada de Humahuaca",
        "city": "Humahuaca",
        "coordinates": {
          "latitude": -23.2028,
          "longitude": -65.3494
        }
      },
      {
        "name": "Talampaya National Park",
        "city": "La Rioja",
        "coordinates": {
          "latitude": -29.7876,
          "longitude": -67.9994
        }
      },
      {
        "name": "Valdés Peninsula",
        "city": "Puerto Madryn",
        "coordinates": {
          "latitude": -42.5167,
          "longitude": -64.3167
        }
      },
      {
        "name": "Los Glaciares National Park",
        "city": "El Calafate",
        "coordinates": {
          "latitude": -50.5000,
          "longitude": -73.2500
        }
      },
      {
        "name": "Cueva de las Manos",
        "city": "Perito Moreno",
        "coordinates": {
          "latitude": -47.1500,
          "longitude": -70.6667
        }
      },
      {
        "name": "El Ateneo Grand Splendid",
        "city": "Buenos Aires",
        "coordinates": {
          "latitude": -34.5961,
          "longitude": -58.3925
        }
      },
      {
        "name": "Puerto Madero",
        "city": "Buenos Aires",
        "coordinates": {
          "latitude": -34.6118,
          "longitude": -58.3626
        }
      },
      {
        "name": "Caminito",
        "city": "Buenos Aires",
        "coordinates": {
          "latitude": -34.6345,
          "longitude": -58.3631
        }
      },
      {
        "name": "Plaza de Mayo",
        "city": "Buenos Aires",
        "coordinates": {
          "latitude": -34.6081,
          "longitude": -58.3700
        }
      },
      {
        "name": "San Telmo",
        "city": "Buenos Aires",
        "coordinates": {
          "latitude": -34.6214,
          "longitude": -58.3731
        }
      },
      {
        "name": "Tierra del Fuego National Park",
        "city": "Ushuaia",
        "coordinates": {
          "latitude": -54.7667,
          "longitude": -68.3000
        }
      }
    ],
    "currency": "Argentine peso",
    "gdp": 388.5,
    "flag": "ARG",
    "timezone": "America/Argentina/Buenos_Aires",
    "callingCode": "+54",
    "images": [
      "images/Argentina/Argentina_Moreno_glacier.jpg",
      "images/Argentina/Argentina_obelisk.jpg",
      "images/Argentina/Argentina_Iguazufalls.jpg",
      "images/Argentina/Argentina.jpg"
    ],
    "safetyStatus": "yellow",
    "dangerExplanation": "Crime in urban areas like Buenos Aires, including pickpocketing and scams, is a concern."
  },

  {
    "name": "Armenia",
    "capital": "Yerevan",
    "region": "Asia",
    "population": 2963243,
    "area": 29743,
    "languages": [
      "Armenian"
    ],
    "borders": [
      "Georgia",
      "Azerbaijan",
      "Iran",
      "Turkey"
    ],
    "cities": [
      { "city": "Yerevan", "latitude": 40.1792, "longitude": 44.4991 },
      { "city": "Gyumri", "latitude": 41.1355, "longitude": 40.1517 },
      { "city": "Vagharshapat", "latitude": 40.1514, "longitude": 44.3133 },
      { "city": "Vanadzor", "latitude": 40.4785, "longitude": 43.7912 },
      { "city": "Vayk", "latitude": 39.7656, "longitude": 46.3642 },
      { "city": "Kapan", "latitude": 39.2191, "longitude": 46.4175 },
      { "city": "Ararat", "latitude": 45.0201, "longitude": 40.1503 },
      { "city": "Abovyan", "latitude": 40.1861, "longitude": 44.5886 },
      { "city": "Alaverdi", "latitude": 41.1400, "longitude": 44.5689 },
      { "city": "Artashat", "latitude": 39.9990, "longitude": 44.6342 },
      { "city": "Charentsavan", "latitude": 40.2630, "longitude": 44.6564 },
      { "city": "Dilijan", "latitude": 41.1667, "longitude": 44.9500 },
      { "city": "Jermuk", "latitude": 39.7553, "longitude": 40.1528 },
      { "city": "Aparan", "latitude": 40.2700, "longitude": 44.3700 },
      { "city": "Ijevan", "latitude": 41.0167, "longitude": 45.2833 },
      { "city": "Ardziv", "latitude": 39.8360, "longitude": 46.2665 },
      { "city": "Hrazdan", "latitude": 40.4874, "longitude": 44.6400 },
      { "city": "Sevan", "latitude": 40.5419, "longitude": 45.3031 },
      { "city": "Gavar", "latitude": 40.2086, "longitude": 45.0167 },
      { "city": "Sisian", "latitude": 39.5542, "longitude": 46.3228 },
      { "city": "Stepanakert", "latitude": 39.8306, "longitude": 46.7511 },
      { "city": "Byureghavan", "latitude": 40.3230, "longitude": 44.7797 },
      { "city": "Nor Hachn", "latitude": 40.1514, "longitude": 44.6164 },
      { "city": "Vardenis", "latitude": 40.2833, "longitude": 45.5000 },
      { "city": "Masis", "latitude": 40.1471, "longitude": 44.8467 },
      { "city": "Shirak", "latitude": 40.6875, "longitude": 43.6211 },
      { "city": "Talin", "latitude": 40.4133, "longitude": 44.1394 },
      { "city": "Martuni", "latitude": 40.2689, "longitude": 45.1450 },
      { "city": "Khor Virap", "latitude": 40.1458, "longitude": 44.3100 },
      { "city": "Sardarapat", "latitude": 40.0591, "longitude": 44.2097 },
      { "city": "Metsamor", "latitude": 40.1395, "longitude": 44.1223 },
      { "city": "Agarak", "latitude": 39.5120, "longitude": 46.5021 },
      { "city": "Karakert", "latitude": 40.1675, "longitude": 44.3244 },
      { "city": "Tigranashen", "latitude": 40.1794, "longitude": 44.2089 },
      { "city": "Berd", "latitude": 41.0125, "longitude": 45.5064 },
      { "city": "Avan", "latitude": 40.2619, "longitude": 44.5294 },
      { "city": "Kapan", "latitude": 39.2191, "longitude": 46.4175 },
      { "city": "Martakert", "latitude": 39.8675, "longitude": 46.9386 },
      { "city": "Hatsavan", "latitude": 40.1811, "longitude": 44.5556 },
      { "city": "Tsaghkadzor", "latitude": 40.5000, "longitude": 44.7000 },
      { "city": "Vardenik", "latitude": 40.2277, "longitude": 45.2424 },
      { "city": "Spitak", "latitude": 40.8282, "longitude": 44.2790 },
      { "city": "Mkhchyan", "latitude": 40.3583, "longitude": 44.8472 },
      { "city": "Yeghegnadzor", "latitude": 39.7564, "longitude": 45.3219 },
      { "city": "Goris", "latitude": 39.5083, "longitude": 46.3547 },
      { "city": "Vahan", "latitude": 39.9500, "longitude": 46.4328 },
      { "city": "Kapan", "latitude": 39.2191, "longitude": 46.4175 }
    ],
    "monuments": [
      {
        "name": "Fortaleza de São Miguel",
        "city": "Luanda",
        "coordinates": {
          "latitude": -8.8115,
          "longitude": 13.2319
        }
      },
      {
        "name": "National Museum of Anthropology",
        "city": "Luanda",
        "coordinates": {
          "latitude": -8.8142,
          "longitude": 13.2317
        }
      },
      {
        "name": "Igreja da Nossa Senhora da Nazaré",
        "city": "Luanda",
        "coordinates": {
          "latitude": -8.8111,
          "longitude": 13.2333
        }
      },
      {
        "name": "Miradouro da Lua",
        "city": "Luanda",
        "coordinates": {
          "latitude": -9.0833,
          "longitude": 13.2500
        }
      },
      {
        "name": "Kalandula Falls",
        "city": "Malanje",
        "coordinates": {
          "latitude": -9.0750,
          "longitude": 16.0033
        }
      },
      {
        "name": "Tundavala Gap",
        "city": "Lubango",
        "coordinates": {
          "latitude": -14.8167,
          "longitude": 13.5000
        }
      },
      {
        "name": "Serra da Leba",
        "city": "Lubango",
        "coordinates": {
          "latitude": -14.9167,
          "longitude": 13.4167
        }
      },
      {
        "name": "Cangandala National Park",
        "city": "Malanje",
        "coordinates": {
          "latitude": -9.7500,
          "longitude": 16.5000
        }
      },
      {
        "name": "Kissama National Park",
        "city": "Luanda",
        "coordinates": {
          "latitude": -9.3333,
          "longitude": 13.1667
        }
      },
      {
        "name": "Mussulo Island",
        "city": "Luanda",
        "coordinates": {
          "latitude": -8.9500,
          "longitude": 13.1000
        }
      },
      {
        "name": "Cathedral of the Holy Saviour",
        "city": "Luanda",
        "coordinates": {
          "latitude": -8.8111,
          "longitude": 13.2333
        }
      },
      {
        "name": "Palácio de Ferro",
        "city": "Luanda",
        "coordinates": {
          "latitude": -8.8111,
          "longitude": 13.2333
        }
      },
      {
        "name": "Mausoleum of Agostinho Neto",
        "city": "Luanda",
        "coordinates": {
          "latitude": -8.8111,
          "longitude": 13.2333
        }
      },
      {
        "name": "Igreja da Nossa Senhora do Carmo",
        "city": "Luanda",
        "coordinates": {
          "latitude": -8.8111,
          "longitude": 13.2333
        }
      },
      {
        "name": "Igreja da Nossa Senhora da Conceição",
        "city": "Luanda",
        "coordinates": {
          "latitude": -8.8111,
          "longitude": 13.2333
        }
      },
      {
        "name": "Igreja da Nossa Senhora do Rosário",
        "city": "Luanda",
        "coordinates": {
          "latitude": -8.8111,
          "longitude": 13.2333
        }
      },
      {
        "name": "Igreja da Nossa Senhora da Muxima",
        "city": "Luanda",
        "coordinates": {
          "latitude": -8.8111,
          "longitude": 13.2333
        }
      },
      {
        "name": "Igreja da Nossa Senhora da Vitória",
        "city": "Luanda",
        "coordinates": {
          "latitude": -8.8111,
          "longitude": 13.2333
        }
      },
      {
        "name": "Igreja da Nossa Senhora da Assunção",
        "city": "Luanda",
        "coordinates": {
          "latitude": -8.8111,
          "longitude": 13.2333
        }
      },
      {
        "name": "Igreja da Nossa Senhora da Graça",
        "city": "Luanda",
        "coordinates": {
          "latitude": -8.8111,
          "longitude": 13.2333
        }
      }
    ],
    "currency": "Armenian dram",
    "gdp": 13.67,
    "flag": "ARM",
    "timezone": "Asia/Yerevan",
    "callingCode": "+374",

    "images": [
      "https://upload.wikimedia.org/wikipedia/commons/a/aa/Geghard_Monastery.jpg",
      "https://upload.wikimedia.org/wikipedia/commons/4/4b/Garni_Temple.jpg",
      "https://upload.wikimedia.org/wikipedia/commons/d/d2/Khor_Virap.jpg"
    ],
    "safetyStatus": "yellow",
    "dangerExplanation": "Border regions near Azerbaijan are dangerous due to ongoing conflicts."
  },
  {
    "name": "Australia",
    "capital": "Canberra",
    "region": "Oceania",
    "population": 25687041,
    "area": 7692024,
    "languages": [
      "English"
    ],
    "borders": [],
    "cities": [
      { "city": "Sydney", "latitude": -33.8688, "longitude": 151.2093 },
      { "city": "Melbourne", "latitude": -37.8136, "longitude": 144.9631 },
      { "city": "Brisbane", "latitude": -27.4698, "longitude": 153.0251 },
      { "city": "Perth", "latitude": -31.9505, "longitude": 115.8605 },
      { "city": "Adelaide", "latitude": -34.9285, "longitude": 138.6007 },
      { "city": "Hobart", "latitude": -42.8794, "longitude": 147.3294 },
      { "city": "Darwin", "latitude": -12.4634, "longitude": 130.8456 },
      { "city": "Canberra", "latitude": -35.2809, "longitude": 149.1300 },
      { "city": "Gold Coast", "latitude": -28.0167, "longitude": 153.4000 },
      { "city": "Newcastle", "latitude": -32.9272, "longitude": 151.7817 },
      { "city": "Geelong", "latitude": -38.1499, "longitude": 144.3617 },
      { "city": "Cairns", "latitude": -16.9186, "longitude": 145.7781 },
      { "city": "Wollongong", "latitude": -34.4278, "longitude": 150.8931 },
      { "city": "Launceston", "latitude": -41.4404, "longitude": 147.1415 },
      { "city": "Townsville", "latitude": -19.2589, "longitude": 146.8184 },
      { "city": "Ballarat", "latitude": -37.5622, "longitude": 143.8503 },
      { "city": "Bendigo", "latitude": -36.7581, "longitude": 144.2794 },
      { "city": "Mackay", "latitude": -21.1415, "longitude": 149.1804 },
      { "city": "Rockhampton", "latitude": -23.3800, "longitude": 150.5113 },
      { "city": "Albury", "latitude": -36.0730, "longitude": 146.9130 },
      { "city": "Shepparton", "latitude": -36.3740, "longitude": 145.4057 },
      { "city": "Traralgon", "latitude": -38.2000, "longitude": 146.5500 },
      { "city": "Sunshine Coast", "latitude": -26.6500, "longitude": 153.0760 },
      { "city": "Port Macquarie", "latitude": -31.4312, "longitude": 152.9080 },
      { "city": "Bundaberg", "latitude": -24.8660, "longitude": 152.3480 },
      { "city": "Whyalla", "latitude": -33.0333, "longitude": 137.5833 },
      { "city": "Toowoomba", "latitude": -27.5590, "longitude": 151.9500 },
      { "city": "Coffs Harbour", "latitude": -30.2980, "longitude": 153.1150 },
      { "city": "Wagga Wagga", "latitude": -35.0730, "longitude": 147.3550 },
      { "city": "Orange", "latitude": -33.2833, "longitude": 149.1000 },
      { "city": "Bathurst", "latitude": -33.4199, "longitude": 149.5806 },
      { "city": "Dubbo", "latitude": -32.2560, "longitude": 148.6020 },
      { "city": "Tweed Heads", "latitude": -28.1833, "longitude": 153.5333 },
      { "city": "Armidale", "latitude": -30.5119, "longitude": 151.6659 },
      { "city": "Mildura", "latitude": -34.1833, "longitude": 142.1500 },
      { "city": "Goulburn", "latitude": -34.7550, "longitude": 149.7119 },
      { "city": "Lismore", "latitude": -28.8114, "longitude": 153.2836 },
      { "city": "Bairnsdale", "latitude": -37.8167, "longitude": 147.6111 },
      { "city": "Emerald", "latitude": -23.5300, "longitude": 148.1667 },
      { "city": "Horsham", "latitude": -36.7125, "longitude": 142.2108 },
      { "city": "Kingaroy", "latitude": -26.5389, "longitude": 151.8270 },
      { "city": "Victor Harbor", "latitude": -35.5491, "longitude": 138.6177 },
      { "city": "Mount Gambier", "latitude": -37.8305, "longitude": 140.7809 },
      { "city": "Kinglake", "latitude": -37.5963, "longitude": 145.3694 },
      { "city": "Coffs Harbour", "latitude": -30.2980, "longitude": 153.1150 },
      { "city": "Morwell", "latitude": -38.2361, "longitude": 146.5525 },
      { "city": "Corowa", "latitude": -35.9861, "longitude": 146.3917 }
    ],
    "currency": "Australian dollar",
    "gdp": 1392.7,
    "flag": "AUS",
    "timezone": "Australia/Sydney",
    "callingCode": "+61",
    "monuments": [
      {
        "name": "Sydney Opera House",
        "city": "Sydney",
        "coordinates": {
          "latitude": -33.8568,
          "longitude": 151.2153
        }
      },
      {
        "name": "Great Barrier Reef",
        "city": "Cairns",
        "coordinates": {
          "latitude": -16.9186,
          "longitude": 145.7781
        }
      },
      {
        "name": "Uluru",
        "city": "Alice Springs",
        "coordinates": {
          "latitude": -25.3444,
          "longitude": 131.0369
        }
      },
      {
        "name": "Sydney Harbour Bridge",
        "city": "Sydney",
        "coordinates": {
          "latitude": -33.8523,
          "longitude": 151.2108
        }
      },
      {
        "name": "Bondi Beach",
        "city": "Sydney",
        "coordinates": {
          "latitude": -33.8915,
          "longitude": 151.2767
        }
      },
      {
        "name": "Kakadu National Park",
        "city": "Darwin",
        "coordinates": {
          "latitude": -12.7200,
          "longitude": 132.8300
        }
      },
      {
        "name": "Twelve Apostles",
        "city": "Melbourne",
        "coordinates": {
          "latitude": -38.6633,
          "longitude": 143.1051
        }
      },
      {
        "name": "Blue Mountains",
        "city": "Katoomba",
        "coordinates": {
          "latitude": -33.7185,
          "longitude": 150.3100
        }
      },
      {
        "name": "Fraser Island",
        "city": "Hervey Bay",
        "coordinates": {
          "latitude": -25.2392,
          "longitude": 153.1325
        }
      },
      {
        "name": "Daintree Rainforest",
        "city": "Cairns",
        "coordinates": {
          "latitude": -16.1700,
          "longitude": 145.4185
        }
      },
      {
        "name": "Port Arthur",
        "city": "Hobart",
        "coordinates": {
          "latitude": -43.1480,
          "longitude": 147.8500
        }
      },
      {
        "name": "Phillip Island",
        "city": "Melbourne",
        "coordinates": {
          "latitude": -38.4833,
          "longitude": 145.2333
        }
      },
      {
        "name": "Kings Park",
        "city": "Perth",
        "coordinates": {
          "latitude": -31.9617,
          "longitude": 115.8428
        }
      },
      {
        "name": "Royal Botanic Gardens",
        "city": "Sydney",
        "coordinates": {
          "latitude": -33.8642,
          "longitude": 151.2166
        }
      },
      {
        "name": "Taronga Zoo",
        "city": "Sydney",
        "coordinates": {
          "latitude": -33.8436,
          "longitude": 151.2411
        }
      },
      {
        "name": "Queen Victoria Market",
        "city": "Melbourne",
        "coordinates": {
          "latitude": -37.8076,
          "longitude": 144.9568
        }
      },
      {
        "name": "Sea World",
        "city": "Gold Coast",
        "coordinates": {
          "latitude": -27.9575,
          "longitude": 153.4158
        }
      },
      {
        "name": "War Memorial",
        "city": "Canberra",
        "coordinates": {
          "latitude": -35.2819,
          "longitude": 149.1471
        }
      },
      {
        "name": "Parliament House",
        "city": "Canberra",
        "coordinates": {
          "latitude": -35.3081,
          "longitude": 149.1245
        }
      },
      {
        "name": "Flinders Street Station",
        "city": "Melbourne",
        "coordinates": {
          "latitude": -37.8183,
          "longitude": 144.9671
        }
      }
    ],
    "images": [
      "https://upload.wikimedia.org/wikipedia/commons/4/41/Sydney_Opera_House.jpg",
      "https://upload.wikimedia.org/wikipedia/commons/6/61/Great_Barrier_Reef.jpg",
      "https://upload.wikimedia.org/wikipedia/commons/6/68/Uluru_Australia.jpg"
    ],
    "safetyStatus": "green",
    "dangerExplanation": "Very safe, but natural dangers like bushfires, extreme heat, and dangerous wildlife exist."
  },
  {
    "name": "Austria",
    "capital": "Vienna",
    "region": "Europe",
    "population": 9006398,
    "area": 83879,
    "languages": [
      "German"
    ],
    "borders": [
      "Germany",
      "Czech Republic",
      "Slovakia",
      "Hungary",
      "Slovenia",
      "Italy",
      "Switzerland",
      "Liechtenstein"
    ],
    "cities": [
      { "city": "Vienna", "latitude": 48.2082, "longitude": 16.3738 },
      { "city": "Graz", "latitude": 47.0707, "longitude": 15.4395 },
      { "city": "Linz", "latitude": 48.3064, "longitude": 14.2861 },
      { "city": "Salzburg", "latitude": 47.8095, "longitude": 13.0550 },
      { "city": "Innsbruck", "latitude": 47.2692, "longitude": 11.4041 },
      { "city": "Klagenfurt", "latitude": 46.6241, "longitude": 14.3107 },
      { "city": "Villach", "latitude": 46.6143, "longitude": 13.8473 },
      { "city": "St. Pölten", "latitude": 48.2031, "longitude": 15.6278 },
      { "city": "Wels", "latitude": 48.1555, "longitude": 14.0273 },
      { "city": "Dornbirn", "latitude": 47.4125, "longitude": 9.7463 },
      { "city": "Bregenz", "latitude": 47.5039, "longitude": 9.7471 },
      { "city": "Steyr", "latitude": 48.0422, "longitude": 14.4292 },
      { "city": "Feldkirch", "latitude": 47.2386, "longitude": 9.5986 },
      { "city": "Zell am See", "latitude": 47.3256, "longitude": 12.7986 },
      { "city": "Wiener Neustadt", "latitude": 47.8015, "longitude": 16.2505 },
      { "city": "Tulln", "latitude": 48.3667, "longitude": 15.2667 },
      { "city": "Leoben", "latitude": 47.3792, "longitude": 15.2711 },
      { "city": "Krems an der Donau", "latitude": 48.4063, "longitude": 15.6207 },
      { "city": "Bad Ischl", "latitude": 47.7111, "longitude": 13.6158 },
      { "city": "Kapfenberg", "latitude": 47.4333, "longitude": 15.2833 },
      { "city": "Amstetten", "latitude": 48.1305, "longitude": 14.8761 },
      { "city": "Wr. Neustadt", "latitude": 47.8100, "longitude": 16.2500 },
      { "city": "Vöcklabruck", "latitude": 48.0172, "longitude": 13.6836 },
      { "city": "Baden bei Wien", "latitude": 47.9667, "longitude": 16.2333 },
      { "city": "Schwechat", "latitude": 48.1406, "longitude": 16.5614 },
      { "city": "Gmunden", "latitude": 47.9233, "longitude": 13.8033 },
      { "city": "St. Andrä", "latitude": 46.6900, "longitude": 14.4619 },
      { "city": "Völkermarkt", "latitude": 46.6142, "longitude": 14.5431 },
      { "city": "Korneuburg", "latitude": 48.3475, "longitude": 16.2528 },
      { "city": "Ferlach", "latitude": 46.5392, "longitude": 14.2642 },
      { "city": "Sankt Valentin", "latitude": 48.1833, "longitude": 14.7500 },
      { "city": "Bad Vöslau", "latitude": 47.9514, "longitude": 16.2814 },
      { "city": "Neunkirchen", "latitude": 47.7244, "longitude": 16.2097 },
      { "city": "Lustenau", "latitude": 47.4206, "longitude": 9.6833 },
      { "city": "Hohenems", "latitude": 47.3744, "longitude": 9.6986 },
      { "city": "Schwaz", "latitude": 47.3342, "longitude": 11.6692 },
      { "city": "Feldkirchen in Kärnten", "latitude": 46.6797, "longitude": 14.2900 },
      { "city": "Leonding", "latitude": 48.3041, "longitude": 14.2900 },
      { "city": "Sankt Pölten", "latitude": 48.2031, "longitude": 15.6278 },
      { "city": "Ternitz", "latitude": 47.6556, "longitude": 16.2500 },
      { "city": "Bruck an der Mur", "latitude": 47.4319, "longitude": 15.2208 },
      { "city": "Hallein", "latitude": 47.7278, "longitude": 13.0892 },
      { "city": "Lienz", "latitude": 46.8500, "longitude": 12.7500 },
      { "city": "Zeltweg", "latitude": 47.2167, "longitude": 14.7833 },
      { "city": "Purbach am Neusiedler See", "latitude": 47.8500, "longitude": 16.7667 },
      { "city": "Götzis", "latitude": 47.3200, "longitude": 9.6167 },
      { "city": "Hopfgarten", "latitude": 47.4241, "longitude": 11.9289 }
    ],
    "currency": "Euro",
    "gdp": 446.4,
    "flag": "AUT",
    "timezone": "Europe/Vienna",
    "callingCode": "+43",
    "monuments":[
      {
        "name": "Schönbrunn Palace",
        "city": "Vienna",
        "coordinates": {
          "latitude": 48.1845,
          "longitude": 16.3122
        }
      },
      {
        "name": "Hofburg Palace",
        "city": "Vienna",
        "coordinates": {
          "latitude": 48.2065,
          "longitude": 16.3634
        }
      },
      {
        "name": "St. Stephen's Cathedral",
        "city": "Vienna",
        "coordinates": {
          "latitude": 48.2082,
          "longitude": 16.3738
        }
      },
      {
        "name": "Belvedere Palace",
        "city": "Vienna",
        "coordinates": {
          "latitude": 48.1914,
          "longitude": 16.3802
        }
      },
      {
        "name": "Salzburg Cathedral",
        "city": "Salzburg",
        "coordinates": {
          "latitude": 47.7972,
          "longitude": 13.0460
        }
      },
      {
        "name": "Hohensalzburg Fortress",
        "city": "Salzburg",
        "coordinates": {
          "latitude": 47.7960,
          "longitude": 13.0478
        }
      },
      {
        "name": "Melk Abbey",
        "city": "Melk",
        "coordinates": {
          "latitude": 48.2298,
          "longitude": 15.3311
        }
      },
      {
        "name": "Kunsthistorisches Museum",
        "city": "Vienna",
        "coordinates": {
          "latitude": 48.2036,
          "longitude": 16.3615
        }
      },
      {
        "name": "Schlossberg",
        "city": "Graz",
        "coordinates": {
          "latitude": 47.0765,
          "longitude": 15.4395
        }
      },
      {
        "name": "Mirabell Palace",
        "city": "Salzburg",
        "coordinates": {
          "latitude": 47.8055,
          "longitude": 13.0412
        }
      },
      {
        "name": "Hundertwasser House",
        "city": "Vienna",
        "coordinates": {
          "latitude": 48.2075,
          "longitude": 16.3926
        }
      },
      {
        "name": "Schloss Eggenberg",
        "city": "Graz",
        "coordinates": {
          "latitude": 47.0736,
          "longitude": 15.3914
        }
      },
      {
        "name": "Seefeld in Tirol",
        "city": "Seefeld",
        "coordinates": {
          "latitude": 47.3292,
          "longitude": 11.1875
        }
      },
      {
        "name": "Wachau Cultural Landscape",
        "city": "Wachau",
        "coordinates": {
          "latitude": 48.3183,
          "longitude": 15.4194
        }
      },
      {
        "name": "Grossglockner High Alpine Road",
        "city": "Heiligenblut",
        "coordinates": {
          "latitude": 47.0744,
          "longitude": 12.8461
        }
      },
      {
        "name": "Stephansplatz",
        "city": "Vienna",
        "coordinates": {
          "latitude": 48.2082,
          "longitude": 16.3738
        }
      },
      {
        "name": "Vienna State Opera",
        "city": "Vienna",
        "coordinates": {
          "latitude": 48.2025,
          "longitude": 16.3686
        }
      },
      {
        "name": "Prater",
        "city": "Vienna",
        "coordinates": {
          "latitude": 48.2167,
          "longitude": 16.4000
        }
      },
      {
        "name": "Mariazell Basilica",
        "city": "Mariazell",
        "coordinates": {
          "latitude": 47.7731,
          "longitude": 15.3167
        }
      },
      {
        "name": "Krems an der Donau",
        "city": "Krems",
        "coordinates": {
          "latitude": 48.4094,
          "longitude": 15.6144
        }
      }
    ],
    "images": [
      "https://upload.wikimedia.org/wikipedia/commons/f/fb/Schönbrunn_Palace.jpg",
      "https://upload.wikimedia.org/wikipedia/commons/9/9a/Hofburg_Palace.jpg",
      "https://upload.wikimedia.org/wikipedia/commons/6/6c/Melk_Abbey.jpg"
    ],
    "safetyStatus": "green",
    "dangerExplanation": "One of the safest countries in the world."
  },
  {
    "name": "Azerbaijan",
    "capital": "Baku",
    "region": "Asia",
    "population": 10139177,
    "area": 86600,
    "languages": [
      "Azerbaijani"
    ],
    "borders": [
      "Russia",
      "Georgia",
      "Armenia",
      "Iran"
    ],
    "cities": [
      { "city": "Baku", "latitude": 40.4093, "longitude": 49.8671 },
      { "city": "Ganja", "latitude": 40.6824, "longitude": 46.3601 },
      { "city": "Mingechevir", "latitude": 40.7597, "longitude": 47.0503 },
      { "city": "Sumqayit", "latitude": 40.5899, "longitude": 49.6711 },
      { "city": "Lankaran", "latitude": 38.7514, "longitude": 48.7002 },
      { "city": "Shirvan", "latitude": 39.9297, "longitude": 49.9100 },
      { "city": "Shaki", "latitude": 41.2016, "longitude": 47.1506 },
      { "city": "Sheki", "latitude": 41.2041, "longitude": 47.1153 },
      { "city": "Khirdalan", "latitude": 40.4896, "longitude": 49.9860 },
      { "city": "Guba", "latitude": 41.2264, "longitude": 48.4807 },
      { "city": "Gabala", "latitude": 41.5167, "longitude": 47.8483 },
      { "city": "Barda", "latitude": 40.3681, "longitude": 47.1882 },
      { "city": "Khachmaz", "latitude": 41.4997, "longitude": 48.6542 },
      { "city": "Zagatala", "latitude": 41.6206, "longitude": 46.4200 },
      { "city": "Goychay", "latitude": 40.6300, "longitude": 47.5342 },
      { "city": "Sabirabad", "latitude": 39.3897, "longitude": 48.2833 },
      { "city": "Tovuz", "latitude": 40.9736, "longitude": 45.6933 },
      { "city": "Agdash", "latitude": 40.6278, "longitude": 47.1414 },
      { "city": "Balakan", "latitude": 41.7364, "longitude": 46.2844 },
      { "city": "Ismayilli", "latitude": 40.6433, "longitude": 48.2567 },
      { "city": "Fuzuli", "latitude": 39.4300, "longitude": 47.1500 },
      { "city": "Agdam", "latitude": 39.9797, "longitude": 46.7983 },
      { "city": "Lankaran", "latitude": 38.7497, "longitude": 48.6897 },
      { "city": "Terter", "latitude": 40.2833, "longitude": 46.7000 },
      { "city": "Samukh", "latitude": 40.8033, "longitude": 46.5917 },
      { "city": "Goygol", "latitude": 40.5597, "longitude": 46.2333 },
      { "city": "Mingachevir", "latitude": 40.7597, "longitude": 47.0503 },
      { "city": "Khoy", "latitude": 40.5241, "longitude": 48.7444 },
      { "city": "Nakhchivan", "latitude": 39.2203, "longitude": 45.4044 },
      { "city": "Yevlakh", "latitude": 40.5981, "longitude": 46.8744 },
      { "city": "Dashkasan", "latitude": 40.2464, "longitude": 46.4017 },
      { "city": "Shamakhi", "latitude": 40.6042, "longitude": 48.4328 },
      { "city": "Mardakan", "latitude": 40.5536, "longitude": 50.1050 },
      { "city": "Alat", "latitude": 39.6083, "longitude": 49.2942 },
      { "city": "Neftchala", "latitude": 39.3833, "longitude": 49.7500 },
      { "city": "Salyan", "latitude": 39.3433, "longitude": 48.9458 },
      { "city": "Buzovna", "latitude": 40.4642, "longitude": 50.0650 },
      { "city": "Sabunchu", "latitude": 40.4861, "longitude": 49.8889 },
      { "city": "Pirshaghi", "latitude": 40.4200, "longitude": 49.8700 },
      { "city": "Surakhani", "latitude": 40.3736, "longitude": 49.8450 },
      { "city": "Bilajari", "latitude": 40.4642, "longitude": 49.8125 },
      { "city": "Ramani", "latitude": 40.4333, "longitude": 49.7675 },
      { "city": "Khazar", "latitude": 40.3356, "longitude": 50.1483 },
      { "city": "Khachmaz", "latitude": 41.4997, "longitude": 48.6542 },
      { "city": "Agsu", "latitude": 40.5431, "longitude": 48.1300 },
      { "city": "Yardimli", "latitude": 38.9178, "longitude": 48.4167 },
      { "city": "Gusar", "latitude": 41.5167, "longitude": 48.4933 },
      { "city": "Zardab", "latitude": 40.3933, "longitude": 47.7889 },
      { "city": "Quba", "latitude": 41.2264, "longitude": 48.4807 },
      { "city": "Shamkir", "latitude": 40.5927, "longitude": 46.5678 }
    ],
    "currency": "Azerbaijani manat",
    "gdp": 53.01,
    "flag": "AZE",
    "timezone": "Asia/Baku",
    "callingCode": "+994",
    "monuments": [
      {
        "name": "Maiden Tower",
        "city": "Baku",
        "coordinates": {
          "latitude": 40.3667,
          "longitude": 49.8352
        }
      },
      {
        "name": "Flame Towers",
        "city": "Baku",
        "coordinates": {
          "latitude": 40.3598,
          "longitude": 49.8275
        }
      },
      {
        "name": "Gobustan National Park",
        "city": "Qobustan",
        "coordinates": {
          "latitude": 40.0844,
          "longitude": 49.4156
        }
      },
      {
        "name": "Heydar Aliyev Center",
        "city": "Baku",
        "coordinates": {
          "latitude": 40.3953,
          "longitude": 49.8671
        }
      },
      {
        "name": "Palace of the Shirvanshahs",
        "city": "Baku",
        "coordinates": {
          "latitude": 40.3667,
          "longitude": 49.8333
        }
      },
      {
        "name": "Baku Boulevard",
        "city": "Baku",
        "coordinates": {
          "latitude": 40.3700,
          "longitude": 49.8400
        }
      },
      {
        "name": "Ateshgah of Baku",
        "city": "Surakhani",
        "coordinates": {
          "latitude": 40.4125,
          "longitude": 50.0150
        }
      },
      {
        "name": "Yanar Dag",
        "city": "Baku",
        "coordinates": {
          "latitude": 40.4950,
          "longitude": 49.8825
        }
      },
      {
        "name": "Nizami Museum of Azerbaijani Literature",
        "city": "Baku",
        "coordinates": {
          "latitude": 40.3725,
          "longitude": 49.8350
        }
      },
      {
        "name": "Martyrs' Lane",
        "city": "Baku",
        "coordinates": {
          "latitude": 40.3583,
          "longitude": 49.8278
        }
      },
      {
        "name": "Bibi-Heybat Mosque",
        "city": "Baku",
        "coordinates": {
          "latitude": 40.3133,
          "longitude": 49.8050
        }
      },
      {
        "name": "National Flag Square",
        "city": "Baku",
        "coordinates": {
          "latitude": 40.3444,
          "longitude": 49.8222
        }
      },
      {
        "name": "Fountains Square",
        "city": "Baku",
        "coordinates": {
          "latitude": 40.3725,
          "longitude": 49.8350
        }
      },
      {
        "name": "Ganja Fortress",
        "city": "Ganja",
        "coordinates": {
          "latitude": 40.6824,
          "longitude": 46.3601
        }
      },
      {
        "name": "Sheki Khan's Palace",
        "city": "Sheki",
        "coordinates": {
          "latitude": 41.1919,
          "longitude": 47.1706
        }
      },
      {
        "name": "Nizami Mausoleum",
        "city": "Ganja",
        "coordinates": {
          "latitude": 40.6824,
          "longitude": 46.3601
        }
      },
      {
        "name": "Javad Khan Street",
        "city": "Ganja",
        "coordinates": {
          "latitude": 40.6824,
          "longitude": 46.3601
        }
      },
      {
        "name": "Ganja State Philharmonic Hall",
        "city": "Ganja",
        "coordinates": {
          "latitude": 40.6824,
          "longitude": 46.3601
        }
      },
      {
        "name": "Ganja City Hall",
        "city": "Ganja",
        "coordinates": {
          "latitude": 40.6824,
          "longitude": 46.3601
        }
      },
      {
        "name": "Ganja State Puppet Theatre",
        "city": "Ganja",
        "coordinates": {
          "latitude": 40.6824,
          "longitude": 46.3601
        }
      }
    ],
    "images": [
      "https://upload.wikimedia.org/wikipedia/commons/e/e0/Maiden_Tower_Baku.jpg",
      "https://upload.wikimedia.org/wikipedia/commons/8/8f/Flame_Towers_Baku.jpg",
      "https://upload.wikimedia.org/wikipedia/commons/d/df/Gobustan_National_Park.jpg"
    ],
    "safetyStatus": "yellow",
    "dangerExplanation": "Border tensions with Armenia and restricted areas in Nagorno-Karabakh."
  },
  {
    "name": "Bahamas",
    "capital": "Nassau",
    "region": "Caribbean",
    "population": 393248,
    "area": 13940,
    "languages": [
      "English"
    ],
    "borders": [],
    "cities" :
    [
      {"city": "Nassau", "latitude": 25.0343, "longitude": -77.3963},
      {"city": "Freeport", "latitude": 26.5351, "longitude": -78.6243},
      {"city": "West End", "latitude": 25.4833, "longitude": -78.1981},
      {"city": "Marsh Harbour", "latitude": 25.5342, "longitude": -77.0602},
      {"city": "Cooper's Town", "latitude": 25.5033, "longitude": -77.2022},
      {"city": "George Town", "latitude": 23.5505, "longitude": -75.7118},
      {"city": "Alice Town", "latitude": 25.5703, "longitude": -77.9478},
      {"city": "Bimini", "latitude": 25.7175, "longitude": -79.2822},
      {"city": "Long Island", "latitude": 23.1633, "longitude": -75.0156},
      {"city": "Exuma", "latitude": 23.5565, "longitude": -75.5841},
      {"city": "Andros Town", "latitude": 24.7197, "longitude": -77.7478},
      {"city": "Spanish Wells", "latitude": 25.507, "longitude": -76.7361},
      {"city": "Rock Sound", "latitude": 24.8753, "longitude": -76.1781},
      {"city": "Arthur's Town", "latitude": 24.7039, "longitude": -76.7131},
      {"city": "South Palmetto Point", "latitude": 25.1843, "longitude": -76.5202},
      {"city": "Governor's Harbour", "latitude": 25.2833, "longitude": -76.1417},
      {"city": "Long Bay Cay", "latitude": 23.5303, "longitude": -75.6739},
      {"city": "Clarence Town", "latitude": 23.285, "longitude": -75.512},
      {"city": "Bain Town", "latitude": 25.0586, "longitude": -77.3714},
      {"city": "San Salvador", "latitude": 24.1383, "longitude": -74.4697},
      {"city": "Mangrove Cay", "latitude": 24.6614, "longitude": -77.7683},
      {"city": "North Eleuthera", "latitude": 25.4883, "longitude": -77.7289},
      {"city": "Pinewood Gardens", "latitude": 25.0214, "longitude": -77.3728},
      {"city": "Hope Town", "latitude": 25.0297, "longitude": -77.3344},
      {"city": "Green Turtle Cay", "latitude": 26.7467, "longitude": -77.2861},
      {"city": "Port New Providence", "latitude": 25.0706, "longitude": -77.3542},
      {"city": "Ragged Island", "latitude": 22.9528, "longitude": -75.9461},
      {"city": "Salina Point", "latitude": 24.63, "longitude": -76.5472},
      {"city": "Grand Cay", "latitude": 26.7347, "longitude": -78.1706},
      {"city": "Crooked Island", "latitude": 22.7297, "longitude": -74.1806},
      {"city": "The Bluff", "latitude": 24.6514, "longitude": -76.2764},
      {"city": "High Rock", "latitude": 25.7308, "longitude": -78.2147},
      {"city": "Little Harbour", "latitude": 25.4414, "longitude": -77.3261},
      {"city": "Cotton Bay", "latitude": 24.8808, "longitude": -76.1583},
      {"city": "Tarpum Bay", "latitude": 25.3253, "longitude": -76.6036},
      {"city": "Hope Town", "latitude": 25.0297, "longitude": -77.3344},
      {"city": "Baker's Bay", "latitude": 26.4269, "longitude": -77.4994},
      {"city": "Salt Cay", "latitude": 23.2428, "longitude": -75.6947},
      {"city": "Gun Cay", "latitude": 25.4736, "longitude": -77.3897},
      {"city": "Windermere Island", "latitude": 23.7372, "longitude": -75.7067},
      {"city": "Chub Cay", "latitude": 25.2333, "longitude": -77.8683},
      {"city": "The Exuma Cays", "latitude": 23.6186, "longitude": -75.9267},
      {"city": "Orange Creek", "latitude": 25.2892, "longitude": -77.7697},
      {"city": "Turtle Cay", "latitude": 25.2625, "longitude": -77.555},
      {"city": "Gordon's Town", "latitude": 25.0756, "longitude": -77.4078}
    ],
    "currency": "Bahamian dollar",
    "gdp": 13.82,
    "flag": "BHS",
    "timezone": "America/Nassau",
    "callingCode": "+1-242",
    "monuments": [
      {
        "name": "Atlantis Paradise Island",
        "city": "Nassau",
        "coordinates": {
          "latitude": 25.0843,
          "longitude": -77.3188
        }
      },
      {
        "name": "Queen’s Staircase",
        "city": "Nassau",
        "coordinates": {
          "latitude": 25.0735,
          "longitude": -77.3400
        }
      },
      {
        "name": "Fort Charlotte",
        "city": "Nassau",
        "coordinates": {
          "latitude": 25.0780,
          "longitude": -77.3550
        }
      },
      {
        "name": "Fort Fincastle",
        "city": "Nassau",
        "coordinates": {
          "latitude": 25.0735,
          "longitude": -77.3383
        }
      },
      {
        "name": "Pirates of Nassau Museum",
        "city": "Nassau",
        "coordinates": {
          "latitude": 25.0780,
          "longitude": -77.3430
        }
      },
      {
        "name": "National Art Gallery of The Bahamas",
        "city": "Nassau",
        "coordinates": {
          "latitude": 25.0750,
          "longitude": -77.3450
        }
      },
      {
        "name": "Ardastra Gardens, Zoo and Conservation Centre",
        "city": "Nassau",
        "coordinates": {
          "latitude": 25.0780,
          "longitude": -77.3550
        }
      },
      {
        "name": "John Watling's Distillery",
        "city": "Nassau",
        "coordinates": {
          "latitude": 25.0735,
          "longitude": -77.3450
        }
      },
      {
        "name": "Government House",
        "city": "Nassau",
        "coordinates": {
          "latitude": 25.0735,
          "longitude": -77.3450
        }
      },
      {
        "name": "Pompey Museum of Slavery & Emancipation",
        "city": "Nassau",
        "coordinates": {
          "latitude": 25.0780,
          "longitude": -77.3430
        }
      },
      {
        "name": "Christ Church Cathedral",
        "city": "Nassau",
        "coordinates": {
          "latitude": 25.0780,
          "longitude": -77.3430
        }
      },
      {
        "name": "The Cloisters Nassau",
        "city": "Nassau",
        "coordinates": {
          "latitude": 25.0843,
          "longitude": -77.3188
        }
      },
      {
        "name": "Junkanoo Beach",
        "city": "Nassau",
        "coordinates": {
          "latitude": 25.0780,
          "longitude": -77.3550
        }
      },
      {
        "name": "Love Beach",
        "city": "Nassau",
        "coordinates": {
          "latitude": 25.0735,
          "longitude": -77.3400
        }
      },
      {
        "name": "Cable Beach",
        "city": "Nassau",
        "coordinates": {
          "latitude": 25.0780,
          "longitude": -77.3550
        }
      },
      {
        "name": "Arawak Cay",
        "city": "Nassau",
        "coordinates": {
          "latitude": 25.0780,
          "longitude": -77.3550
        }
      },
      {
        "name": "Fort Montagu",
        "city": "Nassau",
        "coordinates": {
          "latitude": 25.0735,
          "longitude": -77.3383
        }
      },
      {
        "name": "The Retreat Garden National Park",
        "city": "Nassau",
        "coordinates": {
          "latitude": 25.0735,
          "longitude": -77.3450
        }
      },
      {
        "name": "Versailles Gardens and French Cloister",
        "city": "Nassau",
        "coordinates": {
          "latitude": 25.0843,
          "longitude": -77.3188
        }
      },
      {
        "name": "Nassau Public Library & Museum",
        "city": "Nassau",
        "coordinates": {
          "latitude": 25.0780,
          "longitude": -77.3430
        }
      }
    ],
    "images": [
      "https://upload.wikimedia.org/wikipedia/commons/e/e3/Atlantis_Paradise_Island.jpg",
      "https://upload.wikimedia.org/wikipedia/commons/8/85/Queens_Staircase_Bahamas.jpg",
      "https://upload.wikimedia.org/wikipedia/commons/6/6e/Fort_Charlotte_Bahamas.jpg"
    ],
    "safetyStatus": "yellow",
    "dangerExplanation": "Crime in some urban areas, particularly Nassau, including robberies and scams."
  },
  {
    "name": "Bahrain",
    "capital": "Manama",
    "region": "Middle East",
    "population": 1701583,
    "area": 778,
    "languages": [
      "Arabic"
    ],
    "borders": [],
    "cities": [
      {"city": "Manama", "latitude": 26.2235, "longitude": 50.5876},
      {"city": "Muharraq", "latitude": 26.2557, "longitude": 50.6173},
      {"city": "Riffa", "latitude": 26.1559, "longitude": 50.6085},
      {"city": "Sitra", "latitude": 26.1231, "longitude": 50.5862},
      {"city": "Isa Town", "latitude": 26.2065, "longitude": 50.5365},
      {"city": "Al-Hidd", "latitude": 26.2274, "longitude": 50.6565},
      {"city": "Zallaq", "latitude": 25.9999, "longitude": 50.5358},
      {"city": "Juffair", "latitude": 26.2242, "longitude": 50.5883},
      {"city": "Adliya", "latitude": 26.2201, "longitude": 50.5808},
      {"city": "Budaiya", "latitude": 26.2261, "longitude": 50.5317},
      {"city": "Busaiteen", "latitude": 26.2574, "longitude": 50.6746},
      {"city": "Seef", "latitude": 26.2251, "longitude": 50.5964},
      {"city": "Al-Muqsha", "latitude": 26.2598, "longitude": 50.6236},
      {"city": "Sanabis", "latitude": 26.2281, "longitude": 50.6111},
      {"city": "A'ali", "latitude": 26.1793, "longitude": 50.5312},
      {"city": "Hamala", "latitude": 26.1673, "longitude": 50.5756},
      {"city": "Sakhir", "latitude": 25.8842, "longitude": 50.5456},
      {"city": "Shakhurah", "latitude": 26.2911, "longitude": 50.6565},
      {"city": "Daih", "latitude": 26.2721, "longitude": 50.5943},
      {"city": "Bahrain Bay", "latitude": 26.2255, "longitude": 50.6100},
      {"city": "Al-Muharraq", "latitude": 26.2772, "longitude": 50.6038},
      {"city": "Malkiya", "latitude": 25.9509, "longitude": 50.6158},
      {"city": "Al-Daih", "latitude": 26.2473, "longitude": 50.5815},
      {"city": "Samaheej", "latitude": 26.2672, "longitude": 50.5618},
      {"city": "Qalali", "latitude": 26.2561, "longitude": 50.6415},
      {"city": "Diraz", "latitude": 26.2162, "longitude": 50.5372},
      {"city": "Al-Jufair", "latitude": 26.2156, "longitude": 50.5888},
      {"city": "Zinj", "latitude": 26.2134, "longitude": 50.5631},
      {"city": "Gudaibiya", "latitude": 26.2297, "longitude": 50.5772},
      {"city": "Jabriya", "latitude": 26.2264, "longitude": 50.5910},
      {"city": "Sitrah", "latitude": 26.1104, "longitude": 50.5912},
      {"city": "Al-Busaiteen", "latitude": 26.2575, "longitude": 50.6628},
      {"city": "Bu Qayriyah", "latitude": 26.2633, "longitude": 50.5288},
      {"city": "Qatar", "latitude": 26.2268, "longitude": 50.6070},
      {"city": "Nuwaidrat", "latitude": 26.1377, "longitude": 50.5856},
      {"city": "Al-Riffa", "latitude": 26.1623, "longitude": 50.6081},
      {"city": "Al-Qadam", "latitude": 26.2513, "longitude": 50.5746},
      {"city": "Buri", "latitude": 26.2315, "longitude": 50.5615},
      {"city": "Khamis", "latitude": 26.2222, "longitude": 50.6006},
      {"city": "Rugaylat", "latitude": 26.2379, "longitude": 50.5799},
      {"city": "Dibdiba", "latitude": 25.9869, "longitude": 50.4715},
      {"city": "Al-Malikiya", "latitude": 25.9919, "longitude": 50.4845}
    ],
    "currency": "Bahraini dinar",
    "gdp": 38.57,
    "flag": "BHR",
    "timezone": "Asia/Bahrain",
    "callingCode": "+973",
    "monuments": [
      {
        "name": "Bahrain Fort",
        "city": "Manama",
        "coordinates": {
          "latitude": 26.2333,
          "longitude": 50.5200
        }
      },
      {
        "name": "Tree of Life",
        "city": "Sakhir",
        "coordinates": {
          "latitude": 25.9961,
          "longitude": 50.5831
        }
      },
      {
        "name": "Al-Fateh Grand Mosque",
        "city": "Manama",
        "coordinates": {
          "latitude": 26.2167,
          "longitude": 50.5831
        }
      },
      {
        "name": "Qal'at al-Bahrain",
        "city": "Manama",
        "coordinates": {
          "latitude": 26.2333,
          "longitude": 50.5200
        }
      },
      {
        "name": "Bab Al Bahrain",
        "city": "Manama",
        "coordinates": {
          "latitude": 26.2333,
          "longitude": 50.5800
        }
      },
      {
        "name": "Bahrain National Museum",
        "city": "Manama",
        "coordinates": {
          "latitude": 26.2333,
          "longitude": 50.5831
        }
      },
      {
        "name": "Arad Fort",
        "city": "Muharraq",
        "coordinates": {
          "latitude": 26.2572,
          "longitude": 50.6111
        }
      },
      {
        "name": "Beit Al Quran",
        "city": "Manama",
        "coordinates": {
          "latitude": 26.2333,
          "longitude": 50.5831
        }
      },
      {
        "name": "Riffa Fort",
        "city": "Riffa",
        "coordinates": {
          "latitude": 26.1333,
          "longitude": 50.5667
        }
      },
      {
        "name": "Al Areen Wildlife Park",
        "city": "Sakhir",
        "coordinates": {
          "latitude": 26.0333,
          "longitude": 50.5167
        }
      },
      {
        "name": "Al Dar Islands",
        "city": "Manama",
        "coordinates": {
          "latitude": 26.2333,
          "longitude": 50.5831
        }
      },
      {
        "name": "Bahrain International Circuit",
        "city": "Sakhir",
        "coordinates": {
          "latitude": 26.0333,
          "longitude": 50.5167
        }
      },
      {
        "name": "Dilmun Burial Mounds",
        "city": "A'ali",
        "coordinates": {
          "latitude": 26.1667,
          "longitude": 50.5500
        }
      },
      {
        "name": "Al Jasra House",
        "city": "Al Jasra",
        "coordinates": {
          "latitude": 26.1167,
          "longitude": 50.4667
        }
      },
      {
        "name": "Shaikh Isa Bin Ali House",
        "city": "Muharraq",
        "coordinates": {
          "latitude": 26.2572,
          "longitude": 50.6111
        }
      },
      {
        "name": "Siyadi House",
        "city": "Muharraq",
        "coordinates": {
          "latitude": 26.2572,
          "longitude": 50.6111
        }
      },
      {
        "name": "Bahrain Financial Harbour",
        "city": "Manama",
        "coordinates": {
          "latitude": 26.2333,
          "longitude": 50.5831
        }
      },
      {
        "name": "Moda Mall",
        "city": "Manama",
        "coordinates": {
          "latitude": 26.2333,
          "longitude": 50.5831
        }
      },
      {
        "name": "Seef Mall",
        "city": "Manama",
        "coordinates": {
          "latitude": 26.2333,
          "longitude": 50.5831
        }
      },
      {
        "name": "Wahooo! Waterpark",
        "city": "Manama",
        "coordinates": {
          "latitude": 26.2333,
          "longitude": 50.5831
        }
      }
    ],
    "images": [
      "https://upload.wikimedia.org/wikipedia/commons/3/30/Bahrain_Fort.jpg",
      "https://upload.wikimedia.org/wikipedia/commons/9/9f/Tree_of_Life_Bahrain.jpg",
      "https://upload.wikimedia.org/wikipedia/commons/1/14/Al-Fateh_Grand_Mosque.jpg"
    ],
    "safetyStatus": "yellow",
    "dangerExplanation": "Occasional political unrest and protests."
  },
  {
    "name": "Bangladesh",
    "capital": "Dhaka",
    "region": "Asia",
    "population": 166303498,
    "area": 147570,
    "languages": [
      "Bengali"
    ],
    "borders": [
      "India",
      "Myanmar"
    ],
    "cities":
    [
      {"city": "Dhaka", "latitude": 23.8103, "longitude": 90.4125},
      {"city": "Chittagong", "latitude": 22.3569, "longitude": 91.7832},
      {"city": "Khulna", "latitude": 22.8456, "longitude": 89.5403},
      {"city": "Rajshahi", "latitude": 24.3690, "longitude": 88.6011},
      {"city": "Sylhet", "latitude": 24.8949, "longitude": 91.8687},
      {"city": "Barisal", "latitude": 22.7010, "longitude": 90.3535},
      {"city": "Rangpur", "latitude": 25.7456, "longitude": 89.2755},
      {"city": "Mymensingh", "latitude": 24.7470, "longitude": 90.4136},
      {"city": "Rajshahi", "latitude": 24.3690, "longitude": 88.6011},
      {"city": "Bogura", "latitude": 24.8482, "longitude": 89.3839},
      {"city": "Narayanganj", "latitude": 23.6345, "longitude": 90.5025},
      {"city": "Narsingdi", "latitude": 23.9111, "longitude": 90.7212},
      {"city": "Comilla", "latitude": 23.4630, "longitude": 91.1776},
      {"city": "Madaripur", "latitude": 23.2015, "longitude": 90.1911},
      {"city": "Tangail", "latitude": 24.2495, "longitude": 89.9605},
      {"city": "Shariatpur", "latitude": 23.1067, "longitude": 90.5367},
      {"city": "Chandpur", "latitude": 23.2295, "longitude": 90.6867},
      {"city": "Satkhira", "latitude": 22.7012, "longitude": 89.0694},
      {"city": "Moulvibazar", "latitude": 24.5136, "longitude": 91.7536},
      {"city": "Cox's Bazar", "latitude": 21.4500, "longitude": 92.0197},
      {"city": "Patuakhali", "latitude": 22.3480, "longitude": 90.3349},
      {"city": "Jashore", "latitude": 23.1624, "longitude": 89.2046},
      {"city": "Faridpur", "latitude": 23.6004, "longitude": 89.8334},
      {"city": "Kushtia", "latitude": 23.9072, "longitude": 89.1122},
      {"city": "Noakhali", "latitude": 22.9639, "longitude": 91.0987},
      {"city": "Gopalganj", "latitude": 23.2211, "longitude": 89.8280},
      {"city": "Khagrachari", "latitude": 23.1056, "longitude": 91.9862},
      {"city": "Meherpur", "latitude": 23.7733, "longitude": 88.5874},
      {"city": "Pabna", "latitude": 23.9976, "longitude": 89.2387},
      {"city": "Brahmanbaria", "latitude": 23.0143, "longitude": 91.1206},
      {"city": "Chattogram", "latitude": 22.3569, "longitude": 91.7832},
      {"city": "Khulna", "latitude": 22.8456, "longitude": 89.5403},
      {"city": "Sherpur", "latitude": 25.0266, "longitude": 89.5439},
      {"city": "Kurigram", "latitude": 25.8764, "longitude": 89.1734},
      {"city": "Nilphamari", "latitude": 25.8807, "longitude": 88.8805},
      {"city": "Habiganj", "latitude": 24.3087, "longitude": 91.4432},
      {"city": "Bagerhat", "latitude": 22.6582, "longitude": 89.8017},
      {"city": "Lalmonirhat", "latitude": 25.3206, "longitude": 89.3352},
      {"city": "Naogaon", "latitude": 24.8141, "longitude": 88.8364},
      {"city": "Thakurgaon", "latitude": 25.6798, "longitude": 88.4765},
      {"city": "Jhalokathi", "latitude": 22.6789, "longitude": 90.1681},
      {"city": "Pirojpur", "latitude": 22.6128, "longitude": 90.2952},
      {"city": "Khulna", "latitude": 22.8456, "longitude": 89.5403},
      {"city": "Sundarbans", "latitude": 21.9655, "longitude": 89.2563}
    ],
    "currency": "Bangladeshi taka",
    "gdp": 411.6,
    "flag": "BGD",
    "timezone": "Asia/Dhaka",
    "callingCode": "+880",
    "monuments": [
      {
        "name": "Lalbagh Fort",
        "city": "Dhaka",
        "coordinates": {
          "latitude": 23.7196,
          "longitude": 90.3880
        }
      },
      {
        "name": "Sundarbans",
        "city": "Khulna",
        "coordinates": {
          "latitude": 21.9497,
          "longitude": 89.1833
        }
      },
      {
        "name": "Sixty Dome Mosque",
        "city": "Bagerhat",
        "coordinates": {
          "latitude": 22.6748,
          "longitude": 89.7415
        }
      },
      {
        "name": "Ahsan Manzil",
        "city": "Dhaka",
        "coordinates": {
          "latitude": 23.7086,
          "longitude": 90.4060
        }
      },
      {
        "name": "Shaheed Minar",
        "city": "Dhaka",
        "coordinates": {
          "latitude": 23.7278,
          "longitude": 90.3960
        }
      },
      {
        "name": "Jatiyo Sangsad Bhaban",
        "city": "Dhaka",
        "coordinates": {
          "latitude": 23.7624,
          "longitude": 90.3789
        }
      },
      {
        "name": "National Martyrs' Memorial",
        "city": "Savar",
        "coordinates": {
          "latitude": 23.8583,
          "longitude": 90.2667
        }
      },
      {
        "name": "Star Mosque",
        "city": "Dhaka",
        "coordinates": {
          "latitude": 23.7104,
          "longitude": 90.4016
        }
      },
      {
        "name": "Somapura Mahavihara",
        "city": "Paharpur",
        "coordinates": {
          "latitude": 25.0311,
          "longitude": 88.9750
        }
      },
      {
        "name": "Mahasthangarh",
        "city": "Bogra",
        "coordinates": {
          "latitude": 24.9611,
          "longitude": 89.3436
        }
      },
      {
        "name": "Kantajew Temple",
        "city": "Dinajpur",
        "coordinates": {
          "latitude": 25.7833,
          "longitude": 88.6500
        }
      },
      {
        "name": "Curzon Hall",
        "city": "Dhaka",
        "coordinates": {
          "latitude": 23.7333,
          "longitude": 90.3925
        }
      },
      {
        "name": "Choto Sona Mosque",
        "city": "Chapainawabganj",
        "coordinates": {
          "latitude": 24.5964,
          "longitude": 88.2747
        }
      },
      {
        "name": "Baitul Mukarram",
        "city": "Dhaka",
        "coordinates": {
          "latitude": 23.7294,
          "longitude": 90.4114
        }
      },
      {
        "name": "Liberation War Museum",
        "city": "Dhaka",
        "coordinates": {
          "latitude": 23.7383,
          "longitude": 90.3950
        }
      },
      {
        "name": "Aparajeyo Bangla",
        "city": "Dhaka",
        "coordinates": {
          "latitude": 23.7333,
          "longitude": 90.3925
        }
      },
      {
        "name": "Shat Gambuj Mosque",
        "city": "Bagerhat",
        "coordinates": {
          "latitude": 22.6748,
          "longitude": 89.7415
        }
      },
      {
        "name": "Mainamati",
        "city": "Comilla",
        "coordinates": {
          "latitude": 23.4578,
          "longitude": 91.1809
        }
      },
      {
        "name": "Ahsan Manzil Museum",
        "city": "Dhaka",
        "coordinates": {
          "latitude": 23.7086,
          "longitude": 90.4060
        }
      },
      {
        "name": "Bangladesh National Museum",
        "city": "Dhaka",
        "coordinates": {
          "latitude": 23.7372,
          "longitude": 90.3944
        }
      }
    ],
    "images": [
      "https://upload.wikimedia.org/wikipedia/commons/8/8c/Lalbagh_Fort.jpg",
      "https://upload.wikimedia.org/wikipedia/commons/5/5e/Sundarbans_Bangladesh.jpg",
      "https://upload.wikimedia.org/wikipedia/commons/d/d2/Sixty_Dome_Mosque.jpg"
    ],
    "safetyStatus": "yellow",
    "dangerExplanation": "Political protests, natural disasters, and occasional violent crimes."
  },


  {
    "name": "Belarus",
    "capital": "Minsk",
    "region": "Europe",
    "population": 9408400,
    "area": 207600,
    "languages": [
      "Belarusian",
      "Russian"
    ],
    "borders": [
      "Latvia",
      "Lithuania",
      "Poland",
      "Russia",
      "Ukraine"
    ],
    "cities": [
      {"city": "Minsk", "latitude": 53.9, "longitude": 27.5667},
      {"city": "Gomel", "latitude": 52.4419, "longitude": 30.9754},
      {"city": "Mogilev", "latitude": 53.9, "longitude": 30.3448},
      {"city": "Vitebsk", "latitude": 55.1892, "longitude": 30.1954},
      {"city": "Grodno", "latitude": 53.6692, "longitude": 23.8238},
      {"city": "Brest", "latitude": 52.0967, "longitude": 23.7131},
      {"city": "Baranovichi", "latitude": 53.1305, "longitude": 26.0111},
      {"city": "Polotsk", "latitude": 55.4767, "longitude": 28.7972},
      {"city": "Soligorsk", "latitude": 52.8442, "longitude": 29.2122},
      {"city": "Pinsk", "latitude": 52.1267, "longitude": 26.0031},
      {"city": "Novopolotsk", "latitude": 55.4556, "longitude": 28.6033},
      {"city": "Rechitsa", "latitude": 52.0667, "longitude": 30.0667},
      {"city": "Bobruisk", "latitude": 53.1486, "longitude": 29.2275},
      {"city": "Orsha", "latitude": 54.4844, "longitude": 30.4175},
      {"city": "Lida", "latitude": 53.8986, "longitude": 25.2853},
      {"city": "Zhodino", "latitude": 54.0722, "longitude": 28.5417},
      {"city": "Borisov", "latitude": 54.2281, "longitude": 28.5142},
      {"city": "Svisloch", "latitude": 53.1511, "longitude": 24.5639},
      {"city": "Vaukavysk", "latitude": 53.6289, "longitude": 23.4783},
      {"city": "Kobrin", "latitude": 52.4653, "longitude": 24.9497},
      {"city": "Mozyr", "latitude": 52.8667, "longitude": 29.1042},
      {"city": "Krichev", "latitude": 53.7647, "longitude": 31.5167},
      {"city": "Mozyr", "latitude": 52.8667, "longitude": 29.1042},
      {"city": "Naroch", "latitude": 54.7464, "longitude": 26.8186},
      {"city": "Smorgon", "latitude": 53.5644, "longitude": 26.8050},
      {"city": "Zhlobin", "latitude": 52.8842, "longitude": 30.0247},
      {"city": "Luninets", "latitude": 52.7028, "longitude": 26.5358},
      {"city": "Krichev", "latitude": 53.7647, "longitude": 31.5167},
      {"city": "Vitebsk", "latitude": 55.1892, "longitude": 30.1954},
      {"city": "Minsk", "latitude": 53.9, "longitude": 27.5667},
      {"city": "Kamenets", "latitude": 52.5767, "longitude": 24.3742},
      {"city": "Vawkavysk", "latitude": 53.6289, "longitude": 23.4783},
      {"city": "Slutsk", "latitude": 53.0858, "longitude": 27.7394},
      {"city": "Turov", "latitude": 52.4283, "longitude": 29.8047},
      {"city": "Lida", "latitude": 53.8986, "longitude": 25.2853},
      {"city": "Dzerzhinsk", "latitude": 53.8083, "longitude": 27.5611},
      {"city": "Svetlogorsk", "latitude": 52.6061, "longitude": 28.2097},
      {"city": "Brest", "latitude": 52.0967, "longitude": 23.7131},
      {"city": "Baranovichi", "latitude": 53.1305, "longitude": 26.0111},
      {"city": "Grodno", "latitude": 53.6692, "longitude": 23.8238},
      {"city": "Polotsk", "latitude": 55.4767, "longitude": 28.7972},
      {"city": "Zhodino", "latitude": 54.0722, "longitude": 28.5417}
    ],
    "currency": "Belarusian ruble",
    "gdp": 68.2,
    "flag": "BLR",
    "timezone": "Europe/Minsk",
    "callingCode": "+375",
    "monuments": [
      {
        "name": "Mir Castle",
        "city": "Mir",
        "coordinates": {
          "latitude": 53.4515,
          "longitude": 26.4725
        }
      },
      {
        "name": "Brest Hero-Fortress",
        "city": "Brest",
        "coordinates": {
          "latitude": 52.0847,
          "longitude": 23.6560
        }
      },
      {
        "name": "Nesvizh Palace",
        "city": "Nesvizh",
        "coordinates": {
          "latitude": 53.2225,
          "longitude": 26.6917
        }
      },
      {
        "name": "National Library of Belarus",
        "city": "Minsk",
        "coordinates": {
          "latitude": 53.9319,
          "longitude": 27.6478
        }
      },
      {
        "name": "Victory Square",
        "city": "Minsk",
        "coordinates": {
          "latitude": 53.9089,
          "longitude": 27.5615
        }
      },
      {
        "name": "Belarusian Great Patriotic War Museum",
        "city": "Minsk",
        "coordinates": {
          "latitude": 53.9083,
          "longitude": 27.5633
        }
      },
      {
        "name": "Church of Saints Simon and Helena",
        "city": "Minsk",
        "coordinates": {
          "latitude": 53.8967,
          "longitude": 27.5472
        }
      },
      {
        "name": "Khatyn Memorial",
        "city": "Lahojsk",
        "coordinates": {
          "latitude": 54.3333,
          "longitude": 27.9333
        }
      },
      {
        "name": "St. Sophia Cathedral",
        "city": "Polotsk",
        "coordinates": {
          "latitude": 55.4875,
          "longitude": 28.7733
        }
      },
      {
        "name": "Gomel Palace",
        "city": "Gomel",
        "coordinates": {
          "latitude": 52.4250,
          "longitude": 31.0150
        }
      },
      {
        "name": "Minsk-Arena",
        "city": "Minsk",
        "coordinates": {
          "latitude": 53.9278,
          "longitude": 27.4750
        }
      },
      {
        "name": "National Academic Bolshoi Opera and Ballet Theatre",
        "city": "Minsk",
        "coordinates": {
          "latitude": 53.9097,
          "longitude": 27.5611
        }
      },
      {
        "name": "Belovezhskaya Pushcha National Park",
        "city": "Kamenyuki",
        "coordinates": {
          "latitude": 52.5833,
          "longitude": 23.8000
        }
      },
      {
        "name": "Stalin Line",
        "city": "Zaslawye",
        "coordinates": {
          "latitude": 54.0000,
          "longitude": 27.3000
        }
      },
      {
        "name": "Mound of Glory",
        "city": "Slabada",
        "coordinates": {
          "latitude": 54.0000,
          "longitude": 28.0000
        }
      },
      {
        "name": "Holy Spirit Cathedral",
        "city": "Minsk",
        "coordinates": {
          "latitude": 53.9050,
          "longitude": 27.5583
        }
      },
      {
        "name": "Island of Tears",
        "city": "Minsk",
        "coordinates": {
          "latitude": 53.9050,
          "longitude": 27.5533
        }
      },
      {
        "name": "Grodno Zoo",
        "city": "Grodno",
        "coordinates": {
          "latitude": 53.6778,
          "longitude": 23.8344
        }
      },
      {
        "name": "Lida Castle",
        "city": "Lida",
        "coordinates": {
          "latitude": 53.8883,
          "longitude": 25.2992
        }
      },
      {
        "name": "Braslav Lakes National Park",
        "city": "Braslav",
        "coordinates": {
          "latitude": 55.6333,
          "longitude": 27.0333
        }
      }
    ],
    "images": [
      "https://upload.wikimedia.org/wikipedia/commons/5/53/Mir_Castle_Belarus.jpg",
      "https://upload.wikimedia.org/wikipedia/commons/8/86/Brest_Fortress.jpg",
      "https://upload.wikimedia.org/wikipedia/commons/a/a7/Nesvizh_Palace.jpg"
    ],
    "safetyStatus": "yellow",
    "dangerExplanation": "Political unrest and restricted freedoms; avoid political gatherings."
  },